iatacode,name,country,city,province,latitude,longitude,elevation,gmtoffset
HEA,Herat,AFG,Herat,Afghanistan,34.210017,62.2283,977,5
KBL,Kabul Intl,AFG,Kabul,Afghanistan,34.565853,69.212328,1792,5
TIA,Tirana Rinas,AL,Tirana,Albania,41.414742,19.720561,38,1
TEE,Cheikh Larbi Tebessi,DZ,Tébessa,Algeria,35.431611,8.120717,811,1
BLJ,Batna Airport,DZ,Batna,Algeria,35.752106,6.308589,822,1
BJA,Soummam,DZ,Bejaïa,Algeria,36.711997,5.069922,6,1
TMR,Tamanrasset,DZ,Tamanrasset,Algeria,22.811461,5.451075,1377,1
BSK,Biskra,DZ,Biskra,Algeria,34.793289,5.738231,88,1
CZL,Mohamed Boudiaf Intl,DZ,Constantine,Algeria,36.276028,6.620386,691,1
QSF,Ain Arnat Airport,DZ,Sétif,Algeria,36.1781,5.32449,1024,1
ORN,Es Senia,DZ,Oran,Algeria,35.623858,-0.621183,90,1
GHA,Noumerat,DZ,Ghardaïa,Algeria,32.384106,3.794114,461,1
AAE,Annaba,DZ,Annaba,Algeria,36.822225,7.809167,5,1
ALG,Houari Boumediene,DZ,Algiers,Algeria,36.691014,3.215408,25,1
TLM,Zenata,DZ,Tlemcen,Algeria,35.016667,-1.45,248,1
PPG,Pago Pago Intl,AS,Pago Pago,American Samoa,-14.2794,-170.7006,10,-11
VPE,Ondjiva Pereira Airport,ANG,Ngiva,Cunene,-17.043464,15.683822,1087,1
SDD,Lubango,ANG,Lubango,Huíla,-14.924733,13.575022,1762,1
CAB,Cabinda,ANG,Cabinda,Cabinda,-5.596992,12.188353,20,1
SPP,Menongue,ANG,Menongue,Cuando Cubango,-14.657583,17.719833,1363,1
LAD,Luanda 4 De Fevereiro,ANG,Luanda,Luanda,-8.858375,13.231178,74,1
NOV,Huambo,ANG,Huambo,Huambo,-12.808878,15.760547,1703,1
AXA,Wallblake,AXA,The Valley,Anguilla,18.204834,-63.055084,39,-4
ANU,V C Bird Intl,AG,St. John's,Antigua and Barbuda,17.136749,-61.792667,19,-4
IRJ,La Rioja,RA,La Rioja,La Rioja,-29.381636,-66.795839,438,-3
JUJ,Jujuy,RA,San Salvador de Jujuy,Jujuy,-24.392778,-65.097778,920,-3
BHI,Comandante Espora,RA,Bahía Blanca,Buenos Aires,-38.724967,-62.169317,75,-3
TUC,Teniente Benjamin Matienzo,RA,San Miguel de Tucumán,Tucumán,-26.840861,-65.104944,456,-3
LUQ,San Luis,RA,San Luis,San Luis,-33.273192,-66.356422,710,-3
SDE,Santiago del Estero,RA,Santiago del Estero,Santiago de Estero,-27.765617,-64.310122,200,-3
SFN,Sauce Viejo,RA,Santa Fe,Santa Fe,-31.711666,-60.811668,17,-3
CNQ,Corrientes,RA,Corrientes,Corrientes,-27.445503,-58.761864,62,-3
NQN,Presidente Peron,RA,Neuquén,Neuquén,-38.949,-68.155711,273,-3
SLA,Salta,RA,Salta,Salta,-24.855978,-65.486169,1246,-3
AEP,Aeroparque Jorge Newbery,RA,Buenos Aires,Distrito Federal,-34.559175,-58.415606,5,-3
EZE,Ministro Pistarini,RA,Buenos Aires,Distrito Federal,-34.822222,-58.535833,20,-3
USH,Ushuaia Malvinas Argentinas,RA,Ushuaia,Tierra del Fuego,-54.843278,-68.29575,22,-3
FMA,Formosa,RA,Formosa,Formosa,-26.212722,-58.228111,59,-3
PSS,Posadas,RA,Posadas,Misiones,-27.385839,-55.970728,131,-3
ROS,Rosario,RA,Rosario,Santa Fe,-32.903611,-60.785,26,-3
RES,Resistencia,RA,Resistencia,Chaco,-27.449986,-59.056125,53,-3
RGL,Rio Gallegos,RA,Río Gallegos,Santa Cruz,-51.608875,-69.312636,19,-3
CRD,Comodoro Rivadavia,RA,Comodoro Rivadavia,Chubut,-45.785347,-67.465508,58,-3
MDQ,Mar Del Plata,RA,Mar del Plata,Buenos Aires,-37.934167,-57.573333,22,-3
MDZ,El Plumerillo,RA,Mendoza,Mendoza,-32.831717,-68.792856,704,-3
COR,Ambrosio L V Taravella,RA,Córdoba,Córdoba,-31.323619,-64.207953,489,-3
EVN,Zvartnots,ARM,Yerevan,Armenia,40.147275,44.395881,865,4
AUA,Reina Beatrix Intl,ARU,Oranjestad,Aruba,12.501389,-70.015221,18,-4
MEL,Melbourne Intl,AUS,Melbourne,Victoria,-37.673333,144.843333,132,10
SYD,Sydney Intl,AUS,Sydney,New South Wales,-33.946111,151.177222,6,10
CNS,Cairns Intl,AUS,Cairns,Queensland,-16.885833,145.755278,3,10
TSV,Townsville,AUS,Townsville,Queensland,-19.2525,146.765278,5,10
BNE,Brisbane Intl,AUS,Brisbane,Queensland,-27.384167,153.1175,4,10
CBR,Canberra,AUS,Canberra,Australia Capital Territory,-35.306944,149.195,575,10
ADL,Adelaide Intl,AUS,Adelaide,South Australia,-34.945,138.530556,6,9.5
NTL,Newcastle Airport,AUS,Newcastle,New South Wales,-32.78,151.83,9,10
DRW,Darwin Intl,AUS,Darwin,Northern Territory,-12.4083333,130.87266,31,9.5
PER,Perth Intl,AUS,Perth,Western Australia,-31.940278,115.966944,20,8
HBA,Hobart,AUS,Hobart,Tasmania,-42.836111,147.510278,4,10
SZG,Salzburg,A,Salzburg,Salzburg,47.793304,13.004333,430,1
LNZ,Linz,A,Linz,Oberösterreich,48.233219,14.187511,298,1
INN,Innsbruck,A,Innsbruck,Tirol,47.260219,11.343964,581,1
VIE,Schwechat,A,Wien,Wien,48.110278,16.569722,183,1
GRZ,Graz,A,Graz,Steiermark,46.991067,15.439628,340,1
KLU,Woerthersee International Airport,A,Klagenfurt,Kärnten,46.642514,14.337739,138,1
GYD,Heydar Aliyev,AZ,Baku,Azerbaijan,40.4675,50.046667,3,4
NAS,Lynden Pindling Intl,BS,Nassau,Bahamas,25.038958,-77.466231,5,-5
BAH,Bahrain Intl,BRN,Al Manāmah,Bahrain,26.270834,50.63361,2,3
DAC,Zia Intl,BD,Dhaka,Dhaka,23.843333,90.397781,9,6
CGP,Shah Amanat Intl,BD,Chittagong,Chittagong,22.249611,91.813286,4,6
BGI,Grantley Adams Intl,BDS,Bridgetown,Barbados,13.074603,-59.492456,52,-4
MSQ,Minsk National,BY,Minsk,Minsk City,53.882469,28.030731,204,3
ANR,Deurne,B,Antwerpen,Antwerpen,51.189444,4.460278,12,1
CRL,Brussels South,B,Charleroi,Hainaut,50.459197,4.453817,187,1
LGG,Aéroport de Liège,B,Liège,Liège,50.6375,5.4433,201,1
TNA,Jinan,CN,Jinan,Shandong,36.857214,117.215992,23,8
BRU,Brussels Natl,B,Bruxelles,Bruxelles,50.901389,4.484444,56,1
BZE,Philip S W Goldson Intl,BZ,Belize City,Belize,17.539144,-88.308203,5,-6
COO,Cadjehoun,BEN,Cotonou,Benin,6.357228,2.384353,6,1
BDA,Bermuda Intl,BM,Hamilton,Bermuda,32.364042,-64.678703,4,-4
PBH,Paro,BHT,Thimphu,Bhutan,27.403192,89.424606,2235,6
CIJ,Heroes Del Acre,BOL,Cobija,Pando,-11.040436,-68.782972,272,-4
LPB,El Alto Intl,BOL,La Paz,La Paz,-16.513339,-68.192256,4063,-4
VVI,Viru Viru Intl,BOL,Santa Cruz de la Sierra,Santa Cruz,-17.644756,-63.135364,373,-4
SRE,Juana Azurduy De Padilla,BOL,Sucre,Chuquisaca,-19.007083,-65.288747,2905,-4
TDD,Tte Av Jorge Henrich Arauz,BOL,Trinidad,Beni,-14.818739,-64.918019,155,-4
TJA,Capitan Oriel Lea Plaza,BOL,Tarija,Tarija,-21.555736,-64.701325,1855,-4
CBB,Jorge Wilsterman,BOL,Cochabamba,Cochabamba,-17.421058,-66.177114,2549,-4
SJJ,Sarajevo,BIH,Sarajevo,Federacija Bosne i Hercegovine,43.824583,18.331467,521,1
GBE,Sir Seretse Khama Intl,RB,Gaborone,Botswana,-24.555225,25.918208,1006,2
REC,Guararapes Gilberto Freyre Intl,BR,Recife,Pernambuco,-8.126794,-34.923039,10,-3
BSB,Presidente Juscelino Kubitschek,BR,Brasília,Distrito Federal,-15.8711,-47.918625,1061,-3
BVB,Boa Vista,BR,Boa Vista,Roraima,2.846311,-60.690069,84,-4
RBR,Rio Branco,BR,Rio Branco,Acre,-9.87,-67.89,193,-5
UDI,Ten Cel Av Cesar Bombonato,BR,Uberlândia,Minas Gerais,-18.882844,-48.225594,943,-3
MCZ,Zumbi Dos Palmares,BR,Maceió,Alagoas,-9.510808,-35.791678,118,-3
MCP,Macapa,BR,Macapá,Amapá,0.050664,-51.072178,17,-3
MAO,Eduardo Gomes Intl,BR,Manaus,Amazonas,-3.038611,-60.049721,80,-4
VIX,Goiabeiras,BR,Vitória,Espírito Santo,-20.258056,-40.286389,3,-3
CWB,Afonso Pena,BR,Curitiba,Paraná,-25.528475,-49.175775,911,-3
STM,Santarem,BR,Santarém,Pará,-2.422431,-54.792789,60,-3
LDB,Londrina,BR,Londrina,Paraná,-23.333625,-51.130072,569,-3
CGB,Marechal Rondon,BR,Cuiabá,Mato Grosso,-15.652931,-56.116719,188,-4
CGR,Campo Grande,BR,Campo Grande,Mato Grosso do Sul,-20.468667,-54.6725,559,-4
CGH,Congonhas,BR,São Paulo,São Paulo,-23.626692,-46.655375,802,-3
SDU,Santos Dumont,BR,Rio de Janeiro,Rio de Janeiro,-22.910461,-43.163133,3,-3
SSA,Deputado Luis Eduardo Magalhaes,BR,Salvador,Bahia,-12.910994,-38.331044,20,-3
CNF,Tancredo Neves Intl,BR,Belo Horizonte,Minas Gerais,-19.63375,-43.968856,828,-3
SLZ,Marechal Cunha Machado Intl,BR,São Luís,Maranhão,-2.585361,-44.234139,54,-3
CPQ,Amarais Airport,BR,Campinas,São Paulo,-22.8592,-47.1082,612,-3
VCP,Viracopos,BR,Campinas,São Paulo,-23.0075,-47.134444,662,-3
AJU,Santa Maria,BR,Aracaju,Sergipe,-10.984,-37.070333,7,-3
UBA,Uberaba,BR,Uberaba,Minas Gerais,-19.765,-47.964778,809,-3
BEL,Val De Cans Intl,BR,Belém,Pará,-1.37925,-48.476292,16,-3
THE,Senador Petronio Portella,BR,Teresina,Piauí,-5.059942,-42.823478,67,-3
NAT,Augusto Severo,BR,Natal,Rio Grande do Norte,-5.911417,-35.247717,52,-3
PET,Pelotas,BR,Pelotas,Rio Grande do Sul,-31.718353,-52.327689,18,-3
RAO,Leite Lopes,BR,Ribeirão Preto,São Paulo,-21.134167,-47.774189,549,-3
RVD,General Leite de Castro Airport,BR,Rio Verde,Goiás,-17.790278,-50.918333,684,-3
GVR,Governador Valadares Airport,BR,Governador Valadares,Minas Gerais,-18.8952,-41.9822,171,-3
IPN,Usiminas,BR,Ipatinga,Minas Gerais,-19.470722,-42.487583,239,-3
CXJ,Campo Dos Bugres,BR,Caxias do Sul,Rio Grande do Sul,-29.197064,-51.187536,754,-3
GIG,Galeao Antonio Carlos Jobim,BR,Rio de Janeiro,Rio de Janeiro,-22.808903,-43.243647,9,-3
FOR,Pinto Martins Intl,BR,Fortaleza,Ceará,-3.776283,-38.532556,25,-3
PLU,Pampulha Carlos Drummond De Andrade,BR,Belo Horizonte,Minas Gerais,-19.851181,-43.950628,789,-3
PVH,Governador Jorge Teixeira De Oliveira,BR,Porto Velho,Rondônia,-8.709294,-63.902281,90,-4
GYN,Santa Genoveva,BR,Goiânia,Goiás,-16.632033,-49.220686,747,-3
POA,Salgado Filho,BR,Porto Alegre,Rio Grande do Sul,-29.994428,-51.171428,3,-3
GRU,Guarulhos Gov Andre Franco Montouro,BR,São Paulo,São Paulo,-23.432075,-46.469511,750,-3
IMP,Prefeito Renato Moreira,BR,Imperatriz,Maranhão,-5.531292,-47.46005,131,-3
IOS,Ilheus,BR,Ilhéus,Bahia,-14.815964,-39.033197,5,-3
EIS,Terrance B Lettsome Intl,BVI,Road Town,British Virgin Islands,18.444834,-64.542975,5,-4
BWN,Brunei Intl,BRU,Bandar Seri Begawan,Brunei,4.9442,114.928353,22,8
BOJ,Burgas,BG,Burgas,Bulgaria,42.569583,27.515236,41,2
VAR,Varna,BG,Varna,Bulgaria,43.232072,27.825106,70,2
PDV,Plovdiv,BG,Plovdiv,Bulgaria,42.067806,24.850833,182,2
SOF,Sofia,BG,Sofia,Bulgaria,42.695194,23.406167,531,2
BOY,Bobo Dioulasso,BF,Bobo Dioulasso,Burkina Faso,11.160056,-4.330969,461,0
OUA,Ouagadougou,BF,Ouagadougou,Burkina Faso,12.353194,-1.512417,316,0
MDL,Mandalay Intl,MYA,Mandalay,Mandalay,21.702156,95.977928,91,6.5
RGN,Yangon Intl,MYA,Yangon,Yangon,16.907305,96.133222,33,6.5
BJM,Bujumbura Intl,BI,Bujumbura,Burundi,-3.324019,29.318519,787,2
PNH,Phnom Penh Intl,K,Phnom Penh,Cambodia,11.546556,104.844139,12,7
DLA,Douala,CAM,Douala,Littoral,4.006081,9.719481,10,1
NSI,Yaounde Nsimalen,CAM,Yaoundé,Centre,3.722556,11.553269,695,1
YQX,Gander Intl,CDN,Gander,Newfoundland and Labrador,48.936944,-54.568056,151,-4
YXY,Whitehorse Intl,CDN,Whitehorse,Yukon,60.709553,-135.067269,706,-8
YFB,Iqaluit,CDN,Iqaluit,Nunavut,63.75639,-68.555832,34,-5
YYT,St Johns Intl,CDN,St. John's,Newfoundland and Labrador,47.61861,-52.751945,141,-3.5
YYZ,Lester B Pearson Intl,CDN,Toronto,Ontario,43.677223,-79.630556,173,-5
YYC,Calgary Intl,CDN,Calgary,Alberta,51.113888,-114.020278,1084,-7
YYJ,Victoria Intl,CDN,Victoria,British Columbia,48.646944,-123.425833,19,-8
YXU,London,CDN,London,Ontario,43.033056,-81.151111,278,-5
YXE,Saskatoon J G Diefenbaker Intl,CDN,Saskatoon,Saskatchewan,52.170834,-106.699722,504,-6
YZF,Yellowknife,CDN,Yellowknife,Northwest Territories,62.462778,-114.440278,206,-7
YQB,Quebec Jean Lesage Intl,CDN,Quebec,Quebec,46.791111,-71.393333,74,-5
YQT,Thunder Bay,CDN,Thunder Bay,Ontario,48.371944,-89.323889,199,-5
YQR,Regina Intl,CDN,Regina,Saskatchewan,50.431944,-104.665833,577,-6
YOW,Ottawa Macdonald Cartier Intl,CDN,Ottawa,Ontario,45.3225,-75.669167,114,-5
YUL,Pierre Elliott Trudeau Intl,CDN,Montréal,Quebec,45.470556,-73.740833,36,-5
YTZ,City Centre,CDN,Toronto,Ontario,43.627499,-79.396167,77,-5
YWG,Winnipeg Intl,CDN,Winnipeg,Manitoba,49.910036,-97.239886,239,-6
YVR,Vancouver Intl,CDN,Vancouver,British Columbia,49.193889,-123.184444,4,-8
YHM,Hamilton,CDN,Hamilton,Ontario,43.173611,-79.935,238,-5
YHZ,Halifax Intl,CDN,Halifax,Nova Scotia,44.880833,-63.50861,145,-4
YEG,Edmonton Intl,CDN,Edmonton,Alberta,53.309723,-113.579722,723,-7
RAI,Praia International Airport,CV,Praia,Cape Verde,14.9245,-23.4935,70,-1
LYB,Edward Bodden Airfield,CYM,,,19.6591666667,-80.09083333,1,-5
GCM,Owen Roberts Intl,CYM,George Town,Cayman Islands,19.292778,-81.35775,2,-5
CYB,Gerrard Smith Intl,CYM,,,19.686981,-79.882789,2,-5
BGF,Bangui M Poko,RCA,Bangui,Central African Republic,4.398475,18.518786,368,1
NDJ,Ndjamena Hassan Djamous,TCH,N'Djamena,Chad,12.133689,15.034019,295,1
ANF,Cerro Moreno Intl,RCH,Antofagasta,Antofagasta,-23.444478,-70.4451,139,-4
ZAL,Pichoy,RCH,Valdivia,Ríos,-39.649956,-73.086111,18,-4
LSC,La Florida,RCH,La Serena,Coquimbo,-29.916233,-71.199522,147,-4
CPO,Copiapo,RCH,Copiapó,Atacama,-27,-70,305,-4
CCP,Carriel Sur Intl,RCH,Concepción,Bío-Bío,-36.77265,-73.063106,8,-4
ZCO,Maquehue,RCH,Temuco,Araucanía,-38.766819,-72.637097,93,-4
SCL,Arturo Merino Benitez Intl,RCH,Santiago,Santiago,-33.392975,-70.785803,474,-4
IQQ,Diego Aracena Intl,RCH,Iquique,Tarapacá,-20.535222,-70.181275,47,-4
ARI,Chacalluta,RCH,Arica,Arica y Parinacota,-18.348531,-70.338742,51,-4
PMC,El Tepual Intl,RCH,Puerto Montt,Lagos,-41.438886,-73.093953,90,-4
PUQ,Carlos Ibanez Del Campo Intl,RCH,Punta Arenas,Magallanes,-53.002642,-70.854586,42,-4
HGH,Xiaoshan,CN,Hangzhou,Zhejiang,30.229503,120.434453,7,8
XMN,Gaoqi,CN,Xiamen,Fujian,24.544036,118.127739,18,8
HLD,Dongshan,CN,Hailar,Nei Mongol,49.204997,119.825,661,8
XFN,Xiangfan Airport,CN,Xiangyang,Hubei,32.1506,112.291,,8
HAK,Meilan,CN,Haikou,Hainan,19.934856,110.458961,23,8
HET,Baita Airport,CN,Hohhot,Nei Mongol,40.851422,111.824103,1084,8
PEK,Capital Intl,CN,Beijing,Beijing,40.080111,116.584556,35,8
PVG,Pudong,CN,Shanghai,Shanghai,31.143378,121.805214,4,8
NGB,Ningbo Lishe,CN,Ningbo,Zhejiang,29.82,121.46,4,8
WXN,Wanzhou Wuqiao Airport,CN,Wanzhou,Sichuan,30.8361,108.406,567,8
WUH,Tianhe,CN,Wuhan,Hubei,30.783758,114.2081,34,8
WUX,Wuxi Airport,CN,Wuxi,Jiangsu,31.4944,120.429,5,8
FOC,Fuzhou Changle,CN,Fuzhou,Fujian,25.93,119.65,14,8
WNZ,Wenzhou Longwan Airport,CN,Wenzhou,Zhejiang,27.9122,120.852,,8
INC,Yinchuan,CN,Yinchuan,Ningxia,38.481944,106.009167,1098,8
ZUH,Zhuhai Airport,CN,Zhuhai,Guangdong,22.0064,113.376,7,8
HRB,Taiping,CN,Harbin,Heilongjiang,45.623403,126.250328,139,8
CGQ,Changchun,CN,Changchun,Jilin,43.5412,125.1201,69,8
CGO,Xinzheng,CN,Zhengzhou,Henan,34.519672,113.840889,151,8
LHW,Lanzhou Airport,CN,Lanzhou,Gansu,36.117,103.617,1948,8
SJW,Shijiazhuang Daguocun International Airport,CN,Shijiazhuang,Hebei,38.280686,114.6973,71,8
CKG,Jiangbei,CN,Chongqing,Chongqing,29.719217,106.641678,416,8
CSX,Huanghua,CN,Changsha,Hunan,28.189158,113.219633,66,8
TGO,Tongliao Airport,CN,Tongliao,Nei Mongol,43.5567,122.2,730,8
KHN,Changbei Intl,CN,Nanchang,Jiangxi,28.865,115.9,44,8
KMG,Wujiaba,CN,Kunming,Yunnan,24.992364,102.743536,1895,8
TSN,Binhai,CN,Tianjin,Tianjin,39.124353,117.346183,3,8
BAV,Baotou Airport,CN,Baotou,Nei Mongol,40.56,109.997,1013,8
NDG,Qiqihar Sanjiazi Airport,CN,Qiqihar,Heilongjiang,47.239628,123.918131,145,8
NNG,Wuxu,CN,Nanning,Guangxi,22.608267,108.172442,128,8
NKG,Lukou,CN,Nanjing,Jiangsu,31.742042,118.862025,15,8
URC,Diwopu,CN,Wulumuqi,Xinjiang,43.907106,87.474244,648,8
NTG,Nantong Airport,CN,Nantong,Jiangsu,32.0708,120.976,,8
MIG,Mianyang Airport,CN,Mianyang,Sichuan,31.4281,104.741,,8
TYN,Wusu,CN,Taiyuan,Shanxi,37.746897,112.628428,785,8
CAN,Baiyun Intl,CN,Guangzhou,Guangdong,23.392436,113.298786,15,8
LZO,Luzhou Airport,CN,Luzhou,Sichuan,28.8522,105.393,,8
LYI,Shubuling Airport,CN,Linyi,Shandong,35.0461,118.412,,8
LXA,Lhasa-Gonggar,CN,Lhasa,Xizang,29.297778,90.911944,4005,8
WEH,Weihai Airport,CN,Weihai,Shandong,37.1871,122.229,44,8
MDG,Mudanjiang,CN,Mudanjiang,Heilongjiang,44.523889,129.568889,269,8
DLC,Zhoushuizi,CN,Dalian,Liaoning,38.965667,121.5386,33,8
SYX,Phoenix International,CN,Sanya,Hainan,18.302897,109.412272,28,8
KWE,Longdongbao,CN,Guiyang,Guizhou,26.538522,106.800703,1139,8
SZX,Baoan Intl,CN,Shenzhen,Guangdong,22.639258,113.810664,4,8
CTU,Shuangliu,CN,Chengdu,Sichuan,30.578528,103.947086,495,8
YNT,Laishan,CN,Yantai,Shandong,37.401667,121.371667,18,8
YNZ,Yancheng Airport,CN,Yancheng,Jiangsu,33.3856,120.125,,8
YIH,Yichang Airport,CN,Yichang,Hubei,30.671,111.441,205,8
YBP,Yibin,CN,Yibin,Sichuan,28.800278,104.544444,305,8
XUZ,Xuzhou Guanyin Airport,CN,Xuzhou,Jiangsu,34.16,117.11,43,8
XNN,Xining Caojiabao Airport,CN,Xining,Qinghai,36.5275,102.043,2170,8
XIY,Xianyang,CN,Xian,Shaanxi,34.447119,108.751592,479,8
HFE,Luogang,CN,Hefei,Anhui,31.780019,117.298436,33,8
NNY,Nanyang Airport,CN,Nanyang,Henan,32.9808,112.615,,8
CGD,Changde Airport,CN,Changde,Hunan,28.9189,111.64,,8
KHG,Kashi,CN,Kashgar,Xinjiang,39.542922,76.019956,1381,8
KOW,Ganzhou Airport,CN,Ganzhou,Jiangxi,25.8258,114.912,,8
AKU,Aksu Airport,CN,Aksu,Xinjiang,41.2625,80.2917,1163,8
LYA,Luoyang Airport,CN,Luoyang,Henan,34.41,112.28,64,8
LYG,Lianyungang Airport,CN,Lianyungang,Jiangsu,34.55,119.25,,8
LZH,Bailian Airport,CN,Liuzhou,Guangxi,24.2075,109.391,90,8
WEF,Weifang Airport,CN,Weifang,Shandong,36.6467,119.119,,8
CIH,Changzhi Airport,CN,Changzhi,Shanxi,36.2475,113.126,,8
CIF,Chifeng Airport,CN,Chifeng,Nei Mongol,42.235,118.908,,8
DOY,Dongying Airport,CN,Dongying,Shandong,37.2716,118.2819,26,8
NAO,Nanchong Airport,CN,Nanchong,Sichuan,30.754,106.062,,8
JIU,Jiujiang Lushan Airport,CN,Jiujiang,Jiangxi,29.733,115.983,,8
ZHA,Zhanjiang Airport,CN,Zhanjiang,Guangdong,21.2144,110.358,38,8
HSN,Zhoushan Airport,CN,Zhoushan,Zhejiang,29.9342,122.362,9,8
JNZ,Jinzhou Airport,CN,Jinzhou,Liaoning,41.1014,121.062,,8
YIN,Yining Airport,CN,Yining,Xinjiang,43.9558,81.3303,666,8
KWL,Liangjiang,CN,Guilin,Guangxi,25.218106,110.039197,174,8
CZX,Changzhou,CN,Changzhou,Jiangsu,31.941667,119.711667,12,8
SWA,Jieyang Chaoshan International Airport,CN,Shantou,Guangdong,23.55,116.5,,8
DAT,Datong Airport,CN,Datong,Shanxi,40.0603,113.482,1049,8
TAO,Liuting,CN,Qingdao,Shandong,36.266108,120.374436,10,8
DDG,Dandong,CN,Dandong,Liaoning,40.0255,124.2866,9,8
SHE,Shenyang Taoxian International Airport,CN,Shenyang,Liaoning,41.3824,123.2901,60,8
SHA,Hongqiao Intl,CN,Shanghai,Shanghai,31.197875,121.336319,3,8
XCH,Christmas Island,CX,Flying Fish Cove,Christmas Island,-10.450556,105.690278,279,7
CCK,Cocos Keeling Island Airport,CC,West Island,Cocos Islands,-12.1883,96.8339,3,6.5
BOG,Eldorado Intl,CO,Bogotá,Bogotá Distrito Especial,4.701594,-74.146947,2549,-5
IBE,Perales,CO,Ibagué,Tolima,4.421608,-75.1333,914,-5
FLA,Gustavo Artunduaga Paredes,CO,Florencia,Caquetá,1.589189,-75.564372,245,-5
AXM,El Eden,CO,Armenia,Quindío,4.452775,-75.766447,1216,-5
MZL,La Nubia,CO,Manizales,Caldas,5.029597,-75.464708,2095,-5
EJA,Yariguies,CO,Barrancabermeja,Santander,7.024331,-73.8068,126,-5
CLO,Alfonso Bonilla Aragon Intl,CO,Cali,Valle de Cauca,3.543222,-76.381583,964,-5
CTG,Rafael Nunez,CO,Cartagena,Bolívar,10.442381,-75.512961,1,-5
SMR,Simon Bolivar,CO,Santa Marta,Magdalena,11.11965,-74.230647,7,-5
BAQ,Ernesto Cortissoz,CO,Barranquilla,Atlántico,10.889589,-74.780819,30,-5
PEI,Matecana,CO,Pereira,Risaralda,4.812675,-75.739519,1346,-5
CUC,Camilo Daza,CO,Cúcuta,Norte de Santander,7.927567,-72.511547,334,-5
BGA,Palonegro,CO,Bucaramanga,Santander,7.1265,-73.184778,1188,-5
ADZ,Gustavo Rojas Pinilla,CO,San Andres,"San Andrés, Providencia y Santa Catalina",12.583594,-81.711192,6,-5
EOH,Olaya Herrera,CO,Medellín,Antioquia,6.219958,-75.590519,1506,-5
HAH,Prince Said Ibrahim,COM,Moroni,Comoros,-11.533661,43.27185,28,3
PNR,Pointe Noire,RCB,Pointe-Noire,Pointe-Noire,-4.816028,11.886597,17,1
BZV,Maya Maya,RCB,Brazzaville,Brazzaville,-4.2517,15.253031,320,1
CUR,Hato,CUR,Willemstad,Curacao,12.188853,-68.959803,9,-4
FIH,Ndjili Intl,CGO,Kinshasa,Kinshasa,-4.38575,15.444569,313,1
MJM,Mbuji Mayi,CGO,Mbuji-Mayi,Kasai-Oriental,-6.121236,23.569008,677,2
FBM,Lubumbashi Intl,CGO,Lubumbashi,Haut-Katanga,-11.591333,27.530889,1309,2
RAR,Rarotonga Intl,CK,Avarua,Cook Islands,-21.202739,-159.805556,6,-10
SYQ,Tobias Bolanos International Airport,CR,San José,San José,9.957053,-84.139797,1002,-6
LIR,Daniel Oduber Quiros Intl,CR,Liberia,Guanacaste,10.593289,-85.544408,82,-6
SJO,Juan Santamaria Intl,CR,San José,San José,9.993861,-84.208806,921,-6
ABJ,Abidjan Felix Houphouet Boigny Intl,CI,Abidjan,Abidjan,5.261386,-3.926294,6,0
SPU,Split,HR,Split,Croatia,43.538944,16.297964,24,1
ZAG,Zagreb,HR,Zagreb,Croatia,45.742931,16.068778,108,1
RJK,Rijeka,HR,Rijeka,Croatia,45.216889,14.570267,85,1
ZAD,Zadar,HR,Zadar,Croatia,44.108269,15.346697,88,1
SCU,Antonio Maceo Intl,C,Santiago de Cuba,Santiago de Cuba,19.969769,-75.835414,76,-5
CMW,Ignacio Agramonte Intl,C,Camagüey,Camagüey,21.420428,-77.847433,126,-5
HOG,Frank Pais Intl,C,Holguín,Holguín,20.785589,-76.315108,110,-5
GER,Rafael Cabrera,C,Nueva Gerona,Isla de la Juventud,21.834689,-82.783819,24,-5
AKX,Aktyubinsk,KZ,Aqtobe,Aktobe,50.245833,57.206667,225,5
HAV,Jose Marti Intl,C,La Habana,La Habana,22.989153,-82.409086,64,-5
LCA,Larnaca,CY,Larnaka,Cyprus,34.875117,33.62485,2,2
ECN,Ercan International Airport,CY,Nicosia,Cyprus,35.1547,33.4961,123,2
KLV,Karlovy Vary,CZ,Karlovy Vary,Karlovarský,50.202978,12.914983,606,1
PED,Pardubice,CZ,Pardubice,Pardubický,50.013419,15.738647,226,1
PRG,Vaclav Havel Airport,CZ,Praha,Praha,50.100833,14.26,380,1
OSR,Mosnov,CZ,Ostrava,Moravskoslezský,49.696292,18.111053,257,1
BRQ,Brno-Tuřany,CZ,Brno,Jihomoravský,49.1514,16.6944,235,1
CPH,Kastrup,DK,Copenhagen,Hovedstaden,55.617917,12.655972,5,1
AAL,Aalborg,DK,Ålborg,Nordjylland,57.092789,9.849164,3,1
AAR,Aarhus,DK,Århus,Midtjylland,56.300017,10.619008,25,1
RNN,Bornholm Ronne,DK,Ronne,Hovedstaden,55.063267,14.759558,16,1
EBJ,Esbjerg,DK,Esbjerg,Syddanmark,55.525942,8.553403,30,1
JIB,Ambouli International Airport,DJI,Djibouti,Djibouti,11.5472,43.1594,15,3
DOM,Melville Hall,WD,Roseau,Dominica,15.547028,-61.3,22,-4
SDQ,Las Americas Intl,DOM,Santo Domingo,Dominican Republic,18.429664,-69.668925,18,-4
STI,Cibao Intl,DOM,Santiago,Dominican Republic,19.406092,-70.604689,172,-4
DIL,Presidente Nicolau Lobato Intl,TL,Dili,Timor-Leste,-8.546553,125.524719,8,8
GPS,Seymour,EC,,,-0.453758,-90.265914,63,-6
GYE,Jose Joaquin De Olmedo Intl,EC,Guayaquil,Ecuador,-2.157419,-79.883558,6,-5
UIO,Mariscal Sucre Intl,EC,Quito,Ecuador,-0.141144,-78.488214,2813,-5
CUE,Mariscal Lamar,EC,Cuenca,Ecuador,-2.889467,-78.984397,2532,-5
HRG,Hurghada Intl,ET,Hurghada,Egypt,27.178317,33.799436,16,2
ASW,Aswan Intl,ET,Aswan,Egypt,23.964356,32.819975,202,2
ATZ,Asyut International Airport,ET,Asyut,Egypt,27.046508,31.011983,235,2
HBE,Borg El Arab Intl,ET,Al Iskandariyah,Egypt,30.917669,29.696408,54,2
CAI,Cairo Intl,ET,Al Qahirah,Egypt,30.121944,31.405556,116,2
LXR,Luxor Intl,ET,Al Uqsur,Egypt,25.671028,32.706583,90,2
ALY,Alexandria Intl,ET,Al Iskandariyah,Egypt,31.183903,29.948889,-2,2
SAL,El Salvador Intl,ES,San Salvador,El Salvador,13.440947,-89.055728,31,-6
SSG,Malabo,GQ,Malabo,Insular,3.755267,8.708717,23,1
BSG,Bata,GQ,Bata,Continental,1.9056,9.8056,11,1
ASM,Asmara Intl,ER,Asmara,Eritrea,15.291853,38.910667,2336,3
MSW,Massaua,ER,Massaua,Eritrea,15.68,39.28,59,3
TLL,Tallinn-Ulemiste International,EST,Tallinn,Estonia,59.413317,24.832844,40,2
GDQ,Gondar,ETH,Gondar,Amhara,12.5199,37.434047,1994,3
DIR,Dire Dawa Intl,ETH,Dire Dawa,Dire Dawa,9.6247,41.854203,1167,3
ADD,Bole Intl,ETH,Addis Ababa,Addis Ababa,8.977889,38.799319,2334,3
GMB,Gambella,ETH,Gambella,Gambella,8.128764,34.563131,540,3
PSY,Port Stanley,FALK,Stanley,Falkland Islands,-51.6857,-57.7776,23,-3
FAE,Vagar,FO,Tórshavn,Faroe Islands,62.063628,-7.277219,85,0
SUV,Nausori Intl,FJI,Suva,Fiji,-18.043267,178.559228,5,12
MHQ,Mariehamn,SF,Mariehamn,Åland,60.122203,19.898156,5,2
OUL,Oulu,SF,Oulu,Pohjois-Pohjanmaa,64.930061,25.354564,14,2
HEL,Helsinki Vantaa,SF,Helsinki,Uusimaa,60.317222,24.963333,55,2
POR,Pori,SF,Pori,Satakunta,61.461686,21.799983,13,2
JOE,Joensuu,SF,Joensuu,Pohjols-Karjala,62.662906,29.60755,121,2
RVN,Rovaniemi,SF,Rovaniemi,Lappia,66.564822,25.830411,196,2
JYV,Jyväskylä,SF,Jyväskylä,Keski-Suomi,62.399453,25.678253,140,2
KUO,Kuopio,SF,Kuopio,Pohjois-Savo,63.00715,27.797756,98,2
LPP,Lappeenranta,SF,Lappeenranta,Etelä-Karjala,61.044553,28.144397,106,2
TMP,Tampere Pirkkala,SF,Tampere,Pirkanmaa,61.414147,23.604392,119,2
TKU,Turku,SF,Turku,Varsinais-Suomi,60.514142,22.262808,49,2
VAA,Vaasa,SF,Vaasa,Pohjanmaa,63.05065,21.762175,6,2
MLH,Basel Mulhouse,F,Mulhouse,Grand Est,47.589583,7.529914,270,1
MRS,Provence,F,Marseille,Provence-Alpes-Côte d'Azur,43.435555,5.213611,23,1
MPL,Mediterranee,F,Montpellier,Occitanie,43.576194,3.963014,5,1
CFR,Carpiquet,F,Caen,Normandie,49.173333,-0.45,78,1
ANE,Angers-Loire Airport,F,Angers,Pays de la Loire,47.5603,-0.312222,59,1
ETZ,Metz Nancy Lorraine,F,Metz,Grand Est,48.982142,6.251319,265,1
ORY,Orly,F,Paris,Île-de-France,48.725278,2.359444,89,1
FNI,Garons,F,Nîmes,Occitanie,43.757444,4.416347,94,1
PGF,Rivesaltes,F,Perpignan,Occitanie,42.740442,2.870667,44,1
RNS,St Jacques,F,Rennes,Bretagne,48.069508,-1.734794,38,1
LYS,Saint Exupery,F,Lyon,Auvergne-Rhône-Alpes,45.726387,5.090833,250,1
BOD,Merignac,F,Bordeaux,Nouvelle-Aquitaine,44.828335,-0.715556,49,1
SXB,Entzheim,F,Strasbourg,Grand Est,48.538319,7.628233,154,1
CFE,Auvergne,F,Clermont-Ferrand,Auvergne-Rhône-Alpes,45.786661,3.169169,332,1
LIG,Bellegarde,F,Limoges,Nouvelle-Aquitaine,45.862778,1.179444,396,1
LIL,Lesquin,F,Lille,Hauts-de-France,50.561942,3.089444,48,1
CDG,Charles De Gaulle,F,Paris,Île-de-France,49.012779,2.55,120,1
AJA,Campo Dell Oro,F,Ajaccio,Corse,41.923637,8.802917,5,1
TUF,Val De Loire,F,Tours,Centre-Val de Loire,47.432222,0.727606,109,1
TLS,Blagnac,F,Toulouse,Occitanie,43.629075,1.363819,152,1
BES,Guipavas,F,Brest,Bretagne,48.447911,-4.418539,99,1
NCE,Cote d'Azur,F,Nice,Provence-Alpes-Côte d'Azur,43.658411,7.215872,4,1
NTE,Nantes Atlantique,F,Nantes,Pays de la Loire,47.153189,-1.610725,27,1
SBH,Saint Barthelemy,SBAR,Gustavia,Saint Barthelemy,17.9023,-62.8324,15,-4
CAY,Rochambeau,GF,Cayenne,French Guiana,4.819808,-52.360447,8,-3
PPT,Faa'a International,PF,Papeete,French Polynesia,-17.556667,-149.611389,2,-10
LBV,Leon M Ba,G,Libreville,Gabon,0.4586,9.412283,12,1
BJL,Banjul Intl,WAG,Banjul,Gambia,13.337961,-16.652206,29,0
TBS,Tbilisi,GE,Tbilisi,Georgia,41.669167,44.954722,495,4
BUS,Batumi,GE,Batumi,Georgia,41.610278,41.599694,32,4
KUT,Kopitnari,GE,Kutaisi,Georgia,42.176653,42.482583,68,4
HAJ,Hannover,D,Hannover,Niedersachsen,52.461056,9.685078,56,1
HAM,Hamburg,D,Hamburg,Hamburg,53.630389,9.988228,16,1
PAD,Paderborn Lippstadt,D,Paderborn,Nordrhein-Westfalen,51.614089,8.616317,213,1
GWT,Westerland Sylt,D,,,54.91325,8.340472,16,1
SCN,Saarbrücken,D,Saarbrücken,Saarland,49.214553,7.109508,323,1
TXL,Tegel,D,Berlin,Berlin,52.559686,13.287711,37,1
BRE,Neuenland,D,Bremen,Bremen,53.0475,8.786667,4,1
SXF,Schönefeld,D,Berlin,Berlin,52.380001,13.5225,48,1
STR,Stuttgart,D,Stuttgart,Baden-Württemberg,48.689878,9.221964,389,1
LBC,Lübeck,D,Lübeck,Schleswig-Holstein,53.805367,10.719222,16,1
LEJ,Leipzig Halle,D,Leipzig,Sachsen,51.432447,12.241633,142,1
CGN,Köln Bonn,D,Köln,Nordrhein-Westfalen,50.865917,7.142744,92,1
HHN,Frankfurt Hahn,D,Frankfurt,Hessen,49.948672,7.263892,503,1
FRA,Frankfurt Main,D,Frankfurt,Hessen,50.026421,8.543125,111,1
FMO,Münster Osnabrück,D,Münster,Nordrhein-Westfalen,52.134642,7.684831,49,1
FKB,Baden Airpark,D,Karlsruhe,Baden-Württemberg,48.7793,8.08048,124,1
DUS,Düsseldorf,D,Düsseldorf,Nordrhein-Westfalen,51.289453,6.766775,45,1
NUE,Nürnberg,D,Nürnberg,Bayern,49.4987,11.066897,319,1
DRS,Dresden,D,Dresden,Sachsen,51.132767,13.767161,230,1
DTM,Dortmund,D,Dortmund,Nordrhein-Westfalen,51.518314,7.612242,130,1
MUC,Franz Josef Strauss,D,München,Bayern,48.353783,11.786086,453,1
ACC,Kotoka Intl,GH,Accra,Greater Accra,5.605186,-0.166786,63,0
GIB,Gibraltar,GBZ,Gibraltar,Gibraltar,36.151219,-5.349664,5,1
HER,Nikos Kazantzakis,GR,Iraklio,Kritis,35.339719,25.180297,35,2
IOA,Ioannina,GR,Ioannina,Ipeiroy,39.696388,20.8225,475,2
JMK,Mikonos,GR,,,37.435128,25.348103,123,2
JKH,Chios,GR,,,38.343175,26.140572,5,2
RHO,Rhodes Diagoras,GR,Rhodes,Notioy Aigaioy,36.405419,28.086192,5,2
ATH,Eleftherios Venizelos Intl,GR,Athina,Attikis,37.936358,23.944467,94,2
EFL,Kefallinia,GR,,,38.120069,20.500481,18,2
KVA,Megas Alexandros Intl,GR,Kavala,Anatolikis Makedonias kai Thrakis,40.913306,24.619223,5,2
CFU,Ioannis Kapodistrias Intl,GR,Kerkyra,Ionion Nison,39.601944,19.911667,2,2
SKG,Makedonia,GR,Thessaloniki,Kentrikis Makedonias,40.519725,22.97095,7,2
CHQ,Souda,GR,Chania,Kritis,35.531747,24.149678,149,2
SMI,Samos,GR,,,37.689999,26.911667,6,2
KGS,Kos,GR,,,36.793335,27.091667,126,2
MJT,Mitilini,GR,Mytilini,Boreioy Aigaioy,39.056667,26.598333,18,2
GPA,Araxos,GR,Patra,Dytikis Elladas,38.151111,21.425556,14,2
ZTH,Dionysios Solomos,GR,,,37.750853,20.88425,5,2
JIK,Ikaria,GR,,,37.682717,26.347061,24,2
JSY,Syros,GR,Ermoupoli,Notioy Aigaioy,37.422792,24.950936,72,2
GOH,Nuuk,GL,Nuuk,Greenland,64.190922,-51.678064,86,-3
GND,Point Salines Intl,WG,Saint George's,Grenada,12.004247,-61.786192,13,-4
PTP,Le Raizet,GP,Basse-Terre,Guadeloupe,16.265306,-61.531806,11,-4
GUM,Guam Intl,GU,Hagåtña,Guam,13.48345,144.795983,91,10
GUA,La Aurora,GCA,Ciudad de Guatemala,Guatemala,14.583272,-90.527475,1510,-6
GCI,Guernsey,GBG,Saint Peter Port,Guernsey,49.434956,-2.601969,102,0
CKY,Conakry,RG,Conakry,Guinea,9.576889,-13.611961,22,0
OXB,Osvaldo Vieira Intl,GUB,Bissau,Guinea-Bissau,11.8947,-15.6536,39,0
GEO,Cheddi Jagan Intl,GUY,Georgetown,Guyana,6.498553,-58.254119,29,-4
PAP,Toussaint Louverture Intl,RH,Port-au-Prince,Haiti,18.58005,-72.292542,37,-5
TGU,Toncontin Intl,HN,Tegucigalpa,Francisco Morazán,14.060883,-87.217197,1004,-6
HKG,Hong Kong Intl,HK,Kowloon,Hong Kong,22.308919,113.914603,9,8
BUD,Ferihegy,H,Budapest,Budapest,47.436933,19.255592,151,1
KEF,Keflavik International Airport,IS,Keflavik,Iceland,63.985,-22.605556,52,0
SXR,Srinagar,IND,Srinagar,Jammu and Kashmir,33.987139,74.77425,1655,5.5
STV,Surat,IND,Surat,Gujarat,21.114061,72.741792,5,5.5
DED,Dehradun,IND,Dehra Dun,Uttarakhand,30.189689,78.180256,558,5.5
DEL,Indira Gandhi Intl,IND,Delhi,Delhi,28.5665,77.103088,237,5.5
LKO,Lucknow,IND,Lucknow,Uttar Pradesh,26.760594,80.889339,125,5.5
CJB,Coimbatore,IND,Coimbatore,Tamil Nadu,11.030031,77.043383,404,5.5
COK,Cochin,IND,Kochi,Kerala,10.155556,76.391389,2,5.5
BHO,Bhopal,IND,Bhopal,Madhya Pradesh,23.287467,77.337375,524,5.5
BLR,Bangalore,IND,Bangalore,Karnataka,12.949986,77.668206,888,5.5
TRZ,Trichy,IND,Tiruchirappalli,Tamil Nadu,10.765364,78.709722,88,5.5
TRV,Thiruvananthapuram Intl,IND,Trivandrum,Kerala,8.482122,76.920114,5,5.5
AJL,Aizawl,IND,Aijal,Mizoram,23.746603,92.802767,305,5.5
CCJ,Calicut,IND,Kozhikode,Kerala,11.136839,75.9553,104,5.5
CCU,Netaji Subhash Chandra Bose Intl,IND,Kolkata,West Bengal,22.654739,88.446722,5,5.5
BBI,Bhubaneshwar,IND,Bhubaneswar,Odisha,20.244364,85.817781,42,5.5
VGA,Vijayawada,IND,Vijayawada,Andhra Pradesh,16.530433,80.796847,25,5.5
VNS,Varanasi,IND,Varanasi,Uttar Pradesh,25.452358,82.859342,81,5.5
DIU,Diu Airport,IND,Daman,Daman and Diu,20.7131,70.9211,9,5.5
VTZ,Visakhapatnam,IND,Visakhapatnam,Andhra Pradesh,17.721167,83.224483,5,5.5
NAG,Dr Ambedkar Intl,IND,Nagpur,Maharashtra,21.092192,79.047183,315,5.5
GOP,Gorakhpur Airport,IND,Gorakhpur,Uttar Pradesh,26.739708,83.449708,79,5.5
GAU,Lokpriya Gopinath Bordoloi International Airport,IND,Gauhati,Assam,26.106092,91.585939,49,5.5
PNQ,Pune,IND,Pune,Maharashtra,18.582111,73.919697,592,5.5
GOI,Goa,IND,Panaji,Goa,15.380833,73.831422,56,5.5
IMF,Imphal,IND,Imphal,Manipur,24.75995,93.896697,774,5.5
IDR,Devi Ahilyabai Holkar,IND,Indore,Madhya Pradesh,22.721786,75.801086,564,5.5
RAJ,Rajkot,IND,Rajkot,Gujarat,22.309183,70.779525,134,5.5
HYD,Hyderabad,IND,Hyderabad,Telangana,17.453117,78.467586,531,5.5
RPR,Raipur,IND,Raipur,Chhattisgarh,21.180406,81.738753,317,5.5
JLR,Jabalpur,IND,Jabalpur,Madhya Pradesh,23.177817,80.052047,495,5.5
RJA,Rajahmundry,IND,Rajahmundry,Andhra Pradesh,17.110361,81.818208,46,5.5
JGA,Jamnagar,IND,Jamnagar,Gujarat,22.465522,70.012556,21,5.5
JDH,Jodhpur,IND,Jodhpur,Rajasthan,26.251092,73.048869,219,5.5
JAI,Jaipur,IND,Jaipur,Rajasthan,26.824192,75.812161,385,5.5
IXZ,Port Blair,IND,Port Blair,Andaman and Nicobar Islands,11.641161,92.729744,4,5.5
IXR,Birsa Munda,IND,Ranchi,Jharkhand,23.31425,85.321675,655,5.5
IXU,Aurangabad,IND,Aurangabad,Maharashtra,19.862728,75.398114,583,5.5
IXC,Chandigarh,IND,Chandigarh,Chandigarh,30.673469,76.788542,309,5.5
IXA,Agartala,IND,Agartala,Tripura,23.886978,91.24045,14,5.5
IXM,Madurai,IND,Madurai,Tamil Nadu,9.834508,78.093378,140,5.5
IXJ,Jammu,IND,Jammu,Jammu and Kashmir,32.689142,74.837389,314,5.5
ATQ,Amritsar,IND,Amritsar,Punjab,31.709594,74.797264,230,5.5
MAA,Chennai Intl,IND,Chennai,Tamil Nadu,12.994414,80.180517,16,5.5
BOM,Chhatrapati Shivaji Intl,IND,Mumbai,Maharashtra,19.088686,72.867919,11,5.5
AMD,Ahmedabad,IND,Ahmadabad,Gujarat,23.077242,72.63465,58,5.5
IXD,Allahabad,IND,Allahabad,Uttar Pradesh,25.440064,81.733872,98,5.5
BDJ,Syamsudin Noor,RI,Bandjarmasin,Kalimantan Selatan,-3.442356,114.762553,20,8
KDI,Wolter Monginsidi,RI,Kendari,Sulawesi Tenggara,-4.081608,122.418231,164,8
TKG,Radin Inten II (Branti) Airport,RI,Bandar Lampung,Lampung,-5.242339,105.178939,86,7
BTH,Hang Nadim,RI,Batam,Kepulauan Riau,1.121028,104.118753,38,7
KOE,El Tari,RI,Kupang,Nusa Tenggara Timur,-10.171583,123.671136,102,8
TTE,Sultan Babullah,RI,Ternate,Maluku Utara,0.831414,127.381486,15,9
BKS,Fatmawati Soekarno,RI,Bengkulu,Bengkulu,-3.8637,102.339036,15,7
AMQ,Pattimura,RI,Ambon,Maluku,-3.710264,128.089136,10,9
BPN,Sepinggan,RI,Balikpapan,Kalimantan Timur,-1.268272,116.894478,4,8
MLG,Abdul Rachman Saleh,RI,Malang,Jawa Timur,-7.926556,112.714514,526,7
MDC,Sam Ratulangi,RI,Manado,Sulawesi Utara,1.549447,124.925878,80,8
DJJ,Sentani,RI,Jayapura,Papua,-2.576953,140.516372,88,9
LOP,Lombok International Airport,RI,Mataram,Nusa Tenggara Barat,-8.7573222,116.276675,16,8
SRG,Achmad Yani,RI,Semarang,Jawa Tengah,-6.971447,110.374122,4,7
DJB,Sultan Thaha,RI,Jambi,Jambi,-1.638017,103.644378,25,7
CGK,Soekarno Hatta Intl,RI,Jakarta,DKI Jakarta,-6.125567,106.655897,10,7
BDO,Husein Sastranegara,RI,Bandung,Jawa Barat,-6.900625,107.576294,743,7
UPG,Hasanuddin,RI,Makassar,Sulawesi Selatan,-5.061631,119.554042,14,8
DPS,Bali Ngurah Rai,RI,Denpasar,Bali,-8.748169,115.167172,4,8
PLW,Mutiara,RI,Palu,Sulawesi Tengah,-0.918542,119.909642,87,8
PGK,Depati Amir,RI,Pangkal Pinang,Kepulauan Bangka Belitung,-2.1622,106.139064,33,7
PKY,Tjilik Riwut,RI,Palangkaraya,Kalimantan Tengah,-2.225128,113.942661,25,7
PLM,Sultan Mahmud Badaruddin Ii,RI,Palembang,Sumatera Selatan,-2.89825,104.699903,15,7
GTO,Jalaluddin,RI,Gorontalo,Gorontalo,0.637119,122.849858,32,8
PNK,Supadio,RI,Pontianak,Kalimantan Barat,-0.150711,109.403892,3,7
PKU,Sultan Syarif Kasim Ii,RI,Pekanbaru,Riau,0.460786,101.444539,31,7
PDG,Tabing,RI,Padang,Sumatera Barat,-0.874989,100.351881,3,7
JOG,Adi Sutjipto,RI,Yogyakarta,DI Yogyakarta,-7.788181,110.431758,107,7
BTJ,Sultan Iskandarmuda,RI,Banda Aceh,Aceh,5.523522,95.420372,20,7
MES,Polonia,RI,Medan,Sumatera Utara,3.558056,98.671722,35,7
SUB,Juanda,RI,Surabaya,Jawa Timur,-7.379831,112.786858,3,7
AWZ,Ahwaz,IR,Ahvaz,Khuzestan,31.337431,48.76195,20,3.5
ABD,Abadan,IR,Abadan,Khuzestan,30.371111,48.228333,6,3.5
SYZ,Shiraz Shahid Dastghaib Intl,IR,Shiraz,Fars,29.539242,52.589786,1500,3.5
IFN,Esfahan Shahid Beheshti Intl,IR,Esfahan,Esfahan,32.750836,51.861267,1542,3.5
IKA,Imam Khomeini,IR,Tehran,Tehran,35,51,1008,3.5
BUZ,Bushehr,IR,Bushehr,Bushehr,28.944811,50.834637,21,3.5
MHD,Mashhad,IR,Mashhad,Khorasan-e-Razavi,36,59,995,3.5
TBZ,Tabriz Intl,IR,Tabriz,East Azarbayejan,38.133889,46.235,1359,3.5
BND,Bandar Abbas Intl,IR,Bandar Abbas,Hormozgan,27.218317,56.37785,7,3.5
NJF,Al Najaf International Airport,IRQ,An Najaf,al-Najaf,31.991667,44.404167,152,3
BSR,Basrah Intl,IRQ,Al Basrah,Basrah,30.549069,47.662142,3,3
EBL,Erbil Intl,IRQ,Arbil,Arbil,36.237611,43.963158,409,3
BGW,Baghdad International Airport,IRQ,Baghdad,Baghdad,33.262539,44.234578,35,3
ISU,Sulaymaniyah International Airport,IRQ,As Sulaymaniyah,As Sulaymaniyah,35.5608,45.3147,760,3
SNN,Shannon,IRL,Limerick,Munster,52.701978,-8.924817,14,0
ORK,Cork,IRL,Cork,Munster,51.841269,-8.491111,153,0
DUB,Dublin,IRL,Dublin,Leinster,53.421333,-6.270075,74,0
IOM,Isle Of Man,GBM,Douglas,Isle of Man,54.083333,-4.623889,16,0
TLV,Ben Gurion,IL,Tel Aviv-Yafo,Tel Aviv,32.011389,34.886667,41,2
MXP,Malpensa,I,Milano,Lombardia,45.630606,8.728111,234,1
FLR,Firenze,I,Firenze,Toscana,43.809953,11.2051,43,1
PMF,Parma,I,Parma,Emilia-Romagna,44.824483,10.296367,49,1
PMO,Palermo,I,Palermo,Sicilia,38.175958,13.091019,20,1
PEG,Perugia,I,Perúgia,Umbria,43.095906,12.513222,211,1
GOA,Genova Sestri,I,Génova,Liguria,44.413333,8.8375,4,1
PSA,Pisa,I,Pisa,Toscana,43.683917,10.39275,2,1
PSR,Pescara,I,Pescara,Abruzzo,42.431656,14.181067,15,1
AOI,Falconara,I,Ancona,Marche,43.616389,13.362222,3,1
BRI,Bari,I,Bari,Puglia,41.138856,16.760594,54,1
CAG,Elmas,I,Cágliari,Sardegna,39.251469,9.054283,4,1
BZO,Bolzano,I,Bolzano,Trentino-Alto Adige,46.460194,11.326383,241,1
REG,Reggio Calabria,I,Réggio di Calabria,Calabria,38.071206,15.651556,29,1
RMI,Rimini,I,Rímini,Emilia-Romagna,44.020292,12.611747,13,1
NAP,Capodichino,I,Nápoli,Campania,40.886033,14.290781,90,1
VRN,Villafranca,I,Verona,Veneto,45.395706,10.888533,73,1
FCO,Fiumicino,I,Roma,Lazio,41.804475,12.250797,5,1
VCE,Venezia Tessera,I,Venézia,Veneto,45.505278,12.351944,2,1
BGY,Bergamo Orio Al Serio,I,Bérgamo,Lombardia,45.673889,9.704166,238,1
TRN,Torino,I,Torino,Piemonte,45.200761,7.649631,302,1
TRS,Ronchi Dei Legionari,I,Trieste,Friuli-Venezia Giulia,45.8275,13.472222,11,1
BLQ,Bologna,I,Bologna,Emilia-Romagna,44.535444,11.288667,38,1
CTA,Catania Fontanarossa,I,Catánia,Sicilia,37.466781,15.0664,12,1
LMP,Lampedusa,I,,,35.497914,12.618083,21,1
CIA,Ciampino,I,Roma,Lazio,41.799361,12.594936,130,1
LIN,Linate,I,Milano,Lombardia,45.445103,9.276739,108,1
KIN,Norman Manley Intl,JA,Kingston,Jamaica,17.935667,-76.7875,3,-5
OKJ,Okayama,J,Okayama,Okayama,34.756944,133.855278,246,9
OKA,Naha,J,Naha,Okinawa,26.195814,127.645869,4,9
OIT,Oita,J,Oita,Oita,33.479444,131.737222,6,9
GAJ,Yamagata,J,Yamagata,Yamagata,38.411894,140.371331,108,9
FUK,Fukuoka,J,Fukuoka,Fukuoka,33.585942,130.450686,10,9
FKS,Fukushima Airport,J,Fukushima,Fukushima,37.2274,140.431,372,9
HIJ,Hiroshima,J,Hiroshima,Hiroshima,34.436111,132.919444,332,9
HND,Tokyo Intl,J,Tokyo,Tokyo,35.552258,139.779694,11,9
HKD,Hakodate,J,Hakodate,Hokkaido,41.77,140.821944,46,9
HSG,Saga Airport,J,Saga,Saga,33.1497,130.302,2,9
ITM,Osaka Intl,J,Osaka,Osaka,34.785528,135.438222,15,9
AXT,Akita,J,Akita,Akita,39.615556,140.218611,95,9
TOY,Toyama,J,Toyama,Toyama,36.648333,137.1875,29,9
AOJ,Aomori,J,Aomori,Aomori,40.734722,140.690833,202,9
CTS,New Chitose,J,Sapporo,Hokkaido,42.7752,141.692283,25,9
TAK,Takamatsu,J,Takamatsu,Kagawa,34.214167,134.015556,185,9
SDJ,Sendai,J,Sendai,Miyagi,38.139722,140.916944,5,9
KIX,Kansai,J,Osaka,Osaka,34.4347222,135.244167,15,9
KIJ,Niigata,J,Niigata,Niigata,37.5711,139.0646,2,9
KOJ,Kagoshima,J,Kagoshima,Kagoshima,31.803397,130.719408,276,9
TTJ,Tottori,J,Tottori,Tottori,35.530069,134.166553,20,9
KMI,Miyazaki,J,Miyazaki,Miyazaki,31.877222,131.448611,6,9
KMQ,Komatsu,J,Kanazawa,Ishikawa,36.394611,136.406544,11,9
KMJ,Kumamoto,J,Kumamoto,Kumamoto,32.837319,130.85505,196,9
TKS,Tokushima,J,Tokushima,Tokushima,34.132808,134.606639,8,9
KCZ,Kochi,J,Kochi,Kochi,33.546111,133.669444,13,9
KKJ,New Kitakyushu,J,Kitakyushu,Fukuoka,33.845942,131.034689,6,9
NGO,Chubu Centrair Intl,J,Nagoya,Aichi,34.858414,136.805408,5,9
NGS,Nagasaki,J,Nagasaki,Nagasaki,32.916944,129.913611,5,9
UKB,Kobe,J,Kobe,Hyogo,34.632778,135.223889,7,9
NRT,Narita Intl,J,Tokyo,Tokyo,35.764722,140.386389,43,9
UBJ,Yamaguchi Ube,J,Yamaguchi,Yamaguchi,33.93,131.278611,7,9
MYJ,Matsuyama,J,Matsuyama,Ehime,33.827222,132.699722,8,9
FSZ,Mt. Fuji Shizuoka Airport,J,Shizuoka,Shizuoka,34.796111,138.189444,132,9
JER,Jersey,GBJ,Saint Helier,Jersey,49.207947,-2.195508,84,0
AMM,Queen Alia Intl,JOR,Amman,Jordan,31.722556,35.993214,730,2
PLX,Semipalatinsk,KZ,Semei,East-Kazakhstan,50.3513,80.2344,232,6
URA,Uralsk,KZ,Oral,West Kazakhstan,51.150833,51.543056,38,5
GUW,Atyrau,KZ,Atyrau,Atyrau,47.121944,51.821389,-22,5
SCO,Aktau,KZ,Aktau,Mangistau,43.513557,51.052817,6,5
DZN,Zhezkazgan Airport,KZ,Zhezkazgan,Karaganda,47.708333,67.733333,381,6
KSN,Kostanay West Airport,KZ,Kustanay,Kostanai,53.206944,63.550278,181,6
UKK,Ust Kamenogorsk Airport,KZ,Öskemen,East-Kazakhstan,50.0366,82.4942,286,6
CIT,Shymkent,KZ,Shymkent,South-Kazakhstan,42.364167,69.478889,422,6
ALA,Almaty,KZ,Almaty,Almaty City,43.352072,77.040508,681,6
TSE,Astana Intl,KZ,Astana,Astana,51.022222,71.466944,355,6
KGF,Sary-Arka,KZ,Karaganda,Karaganda,49.670833,73.334444,538,6
PWQ,Pavlodar,KZ,Pavlodar,Pavlodar,52.195,77.073889,125,6
KZO,Kzylorda,KZ,Kyzylorda,Kyzylorda,44.709,65.591,131,6
MYD,Malindi Airport,EAK,Malindi,Kenya,-3.22931,40.1017,24,3
MBA,Mombasa Moi Intl,EAK,Mombasa,Kenya,-4.034833,39.59425,61,3
NBO,Jomo Kenyatta International,EAK,Nairobi,Kenya,-1.319167,36.9275,1624,3
WIL,Nairobi Wilson,EAK,Nairobi,Kenya,-1.321719,36.814833,1691,3
KIS,Kisumu,EAK,Kisumu,Kenya,-0.086139,34.728892,1157,3
EDL,Eldoret Intl,EAK,Eldoret,Kenya,0.404458,35.238928,2116,3
TRW,Bonriki Intl,KIR,Tarawa,Kiribati,1.3817,-173.1442,3,14
KWI,Kuwait Intl,KWT,Al Kuwayt,Kuwait,29.226567,47.968928,63,3
FRU,Manas,KG,Bishkek,Kyrgyzstan,43.061306,74.477556,627,5
OSS,Osh,KG,Osh,Kyrgyzstan,40.608989,72.793269,892,5
VTE,Wattay Intl,LAO,Vientiane,Laos,17.988322,102.563256,172,7
RIX,Riga Intl,LV,Rīga,Latvia,56.923611,23.971111,10,2
BEY,Rafic Hariri Intl,RL,Bayrūt,Lebanon,33.820931,35.488389,27,2
MSU,Moshoeshoe I Intl,LS,Maseru,Lesotho,-29.462256,27.552503,1630,2
ROB,Monrovia Roberts Intl,LB,Monrovia,Liberia,6.233789,-10.362311,9,0
BEN,Benina,LAR,Benghazi,Libya,32.096786,20.269472,132,1
MRA,Misratah Airport,LAR,Misratah,Libya,32.325,15.061,18,1
TIP,Tripoli Intl,LAR,Tripoli,Libya,32.663544,13.159011,80,1
KUN,Kaunas Intl,LT,Kaunas,Lithuania,54.963919,24.084778,78,2
VNO,Vilnius Intl,LT,Vilnius,Lithuania,54.634133,25.285767,197,2
LUX,Luxembourg,L,Luxembourg,Luxembourg,49.626575,6.211517,376,1
MFM,Macao Intl,MAC,Macao,Macau,22.149556,113.591558,6,8
SKP,Skopje,MK,Skopje,North Macedonia,41.961622,21.621381,238,1
DIE,Arrachart,RM,Antsiranana,Madagascar,-12.3494,49.291747,114,3
TLE,Toliara,RM,Toliara,Madagascar,-23.383369,43.728453,9,3
TNR,Ivato,RM,Antananarivo,Madagascar,-18.79695,47.478806,1280,3
TMM,Toamasina,RM,Tamatave,Madagascar,-18.109517,49.392536,7,3
BLZ,Chileka Intl,MW,Blantyre,Malawi,-15.679053,34.974014,779,2
LLW,Kamuzu Intl,MW,Lilongwe,Malawi,-13.789378,33.781,1230,2
PEN,Penang Intl,MAL,Georgetown,Pulau Pinang,5.297139,100.276864,3,8
TGG,Sultan Mahmud,MAL,Kuala Terengganu,Terengganu,5.382639,103.10336,6,8
SDK,Sandakan,MAL,Sandakan,Sabah,5.900897,118.059486,14,8
BKI,Kota Kinabalu Intl,MAL,Kota Kinabalu,Sabah,5.937208,116.051181,3,8
JHB,Sultan Ismail,MAL,Johor Bahru,Johor,1.641308,103.669619,41,8
KCH,Kuching Intl,MAL,Kuching Utara,Sarawak,1.484697,110.346933,27,8
IPH,Sultan Azlan Shah,MAL,Ipoh,Perak,4.567972,101.092194,40,8
KBR,Sultan Ismail Petra,MAL,Kota Bahru,Kelantan,6.16685,102.293014,5,8
SZB,Sultan Abdul Aziz Shah Intl,MAL,Kuala Lumpur,Kuala Lumpur,3.130583,101.549333,27,8
KUA,Kuantan,MAL,Kuantan,Pahang,3.775389,103.209056,18,8
KUL,Kuala Lumpur Intl,MAL,Kuala Lumpur,Kuala Lumpur,2.745578,101.709917,21,8
LBU,Labuan,MAL,Labuan,Labuan,5.300683,115.250181,31,8
MLE,Male Intl,MV,Male,Maldives,4.191833,73.529128,2,5
BKO,Senou,RMM,Bamako,Bamako,12.533544,-7.949944,380,0
MLA,Luqa,M,Valletta,Malta,35.857497,14.4775,91,1
MAJ,Marshall Islands Intl,MH,Majuro,Marshall Islands,7.064758,171.272022,2,12
FDF,Le Lamentin,MQ,Fort-de-France,Martinique,14.591033,-61.003175,5,-4
NKC,Nouakchott,RIM,Nouakchott,Nouakchott,18.097856,-15.947956,2,0
NDB,Nouadhibou,RIM,Nouadhibou,Dakhlet Nouadhibou,20.933067,-17.029956,5,0
MRU,Sir Seewoosagur Ramgoolam Intl,MS,Port Louis,Mauritius,-20.430235,57.6836,57,5
DZA,Dzaoudzi Pamandzi,MYT,Mamoutzou,Mayotte,-12.804722,45.281113,7,3
MAM,General Servando Canales Intl,MEX,Matamoros,Tamaulipas,25.769894,-97.525311,8,-6
CPE,Ingeniero Alberto Acuna Ongay Intl,MEX,Campeche,Campeche,19.816794,-90.500314,10,-6
CLQ,Colima,MEX,Colima,Colima,19.277011,-103.577397,752,-6
UPN,Licenciado Y Gen Ignacio Lopez Rayon,MEX,Uruapan,Michoacán,19.396692,-102.039056,1603,-6
TGZ,Angel Albino Corzo,MEX,Tuxtla Gutiérrez,Chiapas,16.561822,-93.026081,455,-6
TIJ,General Abelardo L Rodriguez Intl,MEX,Tijuana,Baja California,32.541064,-116.970158,149,-8
VER,General Heriberto Jara Intl,MEX,Veracruz,Veracruz,19.145931,-96.187267,27,-6
NLD,Quetzalcoatl Intl,MEX,Nuevo Laredo,Tamaulipas,27.443918,-99.57046,148,-6
MID,Licenciado Manuel Crescencio Rejon Int,MEX,Mérida,Yucatán,20.936981,-89.657672,12,-6
MTY,General Mariano Escobedo Intl,MEX,Monterrey,Nuevo Léon,25.778489,-100.106878,390,-6
MTT,Minatitlan,MEX,Minatitlán,Veracruz,18.103419,-94.580681,11,-6
VSA,C P A Carlos Rovirosa Intl,MEX,Villahermosa,Tabasco,17.997,-92.817361,14,-6
MXL,General Rodolfo Sanchez Taboada Intl,MEX,Mexicali,Baja California,32.630634,-115.241637,23,-8
PBC,Hermanos Serdan Intl,MEX,Puebla,Puebla,19.158144,-98.371447,2244,-6
ZCL,General Leobardo C Ruiz Intl,MEX,Zacatecas,Zacatecas,22.897112,-102.68689,2177,-6
JAL,Lencero Airport,MEX,Xalapa-Enríquez,Veracruz,19.475083,-96.797506,953,-6
QRO,Queretaro Intercontinental,MEX,Querétaro,Querétaro,20.617289,-100.185658,1920,-6
TLC,Licenciado Adolfo Lopez Mateos Intl,MEX,Toluca,"México, Estado de",19.337072,-99.566008,2581,-6
TPQ,Tepic,MEX,Tepic,Nayarit,21.419453,-104.842581,921,-6
CVM,General Pedro Jose Mendez Intl,MEX,Ciudad Victoria,Tamaulipas,23.703336,-98.956486,232,-6
SLP,Ponciano Arriaga Intl,MEX,San Luis Potosí,San Luis Potosí,22.254303,-100.930806,1840,-6
MLM,General Francisco J Mujica Intl,MEX,Morelia,Michoacán,19.849944,-101.0255,1839,-6
DGO,Durango Intl,MEX,Durango,Durango,24.124194,-104.528014,1861,-6
GDL,Don Miguel Hidalgo Y Costilla Intl,MEX,Guadalajara,Jalisco,20.5218,-103.311167,1529,-6
OAX,Xoxocotlan Intl,MEX,Oaxaca,Oaxaca,16.999906,-96.726639,1521,-6
HMO,General Ignacio P Garcia Intl,MEX,Hermosillo,Sonora,29.095858,-111.047858,191,-7
REX,General Lucio Blanco Intl,MEX,Reynosa,Tamaulipas,26.008908,-98.228513,42,-6
MEX,Licenciado Benito Juarez Intl,MEX,Ciudad de México,Distrito Federal,19.436303,-99.072097,2230,-6
MZT,General Rafael Buelna Intl,MEX,Mazatlán,Sinaloa,23.161356,-106.266072,12,-7
CUU,General R Fierro Villalobos Intl,MEX,Chihuahua,Chihuahua,28.702875,-105.964567,1360,-6
CUN,Cancun Intl,MEX,Cancún,Quintana Roo,21.036528,-86.877083,6,-5
CTM,Chetumal Intl,MEX,Chetumal,Quintana Roo,18.504667,-88.326847,12,-5
CUL,Culiacan Intl,MEX,Culiacán,Sinaloa,24.764547,-107.474717,33,-7
TAP,Tapachula Intl,MEX,Tapachula,Chiapas,14.794339,-92.370025,30,-6
TAM,General Francisco Javier Mina Intl,MEX,Tampico,Tamaulipas,22.29645,-97.865931,24,-6
LAP,General Manuel Marquez De Leon Intl,MEX,La Paz,Baja California Sur,24.072694,-110.362475,21,-7
CEN,Ciudad Obregon Intl,MEX,Ciudad Obregón,Sonora,27.392639,-109.833111,63,-7
LMM,Valle Del Fuerte Intl,MEX,Los Mochis,Sinaloa,25.685194,-109.080806,5,-7
SLW,Plan De Guadalupe Intl,MEX,Saltillo,Coahuila,25.549497,-100.928669,1457,-6
AGU,Jesus Teran Intl,MEX,Aguascalientes,Aguascalientes,21.705558,-102.317858,1863,-6
TRC,Torreon Intl,MEX,Torreón,Coahuila,25.568278,-103.410583,1124,-6
ACA,General Juan N Alvarez Intl,MEX,Acapulco,Guerrero,16.757061,-99.753953,5,-6
PNI,Pohnpei Intl,FSM,Palikir,Micronesia,6.9851,158.208989,3,11
KIV,Chisinau Intl,MD,Chişinău,Moldova,46.927744,28.930978,122,2
ULN,Chinggis Khaan Intl,MNG,Ulaanbaatar,Mongolia,47.843056,106.766639,1330,8
TGD,Podgorica,MNE,Podgorica,Montenegro,42.359392,19.251894,43,1
MNI,John A. Osborne,MNTS,Brades,Montserrat,16.7914,-62.1933,168,-4
OUD,Angads,MA,Oujda,Oriental,34.78715,-1.923986,468,0
AGA,Inezgane,MA,Agadir,Souss Massa Daraa,30.381353,-9.546311,27,0
TNG,Ibn Batouta,MA,Tanger,Tanger Tetouan,35.726917,-5.916889,19,0
RAK,Menara,MA,Marrakech,Marrakech Tensift Al Haouz,31.606886,-8.0363,471,0
CMN,Mohammed V Intl,MA,Casablanca,Grand Casablanca,33.367467,-7.589967,200,0
AHU,Cherif El Idrissi,MA,Al Hoceima,Taza Al Hoceima Taounate,35.177103,-3.839525,29,0
RBA,Sale,MA,Rabat,Rabat Sale Zemmour Zaer,34.051467,-6.751519,84,0
FEZ,Saiss,MA,Fès,Fes Boulemane,33.927261,-4.977958,579,0
VPY,Chimoio Airport,MOC,Chimoio,Manica,-19.151267,33.428958,697,2
APL,Nampula,MOC,Nampula,Nampula,-15.105611,39.2818,440,2
TET,Tete Chingodzi,MOC,Tete,Tete,-16.104817,33.640181,160,2
BEW,Beira,MOC,Beira,Sofala,-19.796419,34.907556,10,2
UEL,Quelimane,MOC,Quelimane,Zambézia,-17.8555,36.869106,11,2
INH,Inhambane,MOC,Inhambane,Inhambane,-23.876431,35.408544,9,2
POL,Pemba,MOC,Pemba,Cabo Delgado,-12.986753,40.522492,101,2
MPM,Maputo,MOC,Maputo,Cidade de Maputo,-25.920836,32.572606,44,2
VXC,Lichinga,MOC,Lichinga,Niassa,-13.273986,35.266262,1373,2
WDH,Windhoek Hosea Kutako International Airport,NAM,Windhoek,Namibia,-22.486667,17.4625,1720,1
KTM,Tribhuvan Intl,NEP,Kathmandu,Nepal,27.696583,85.3591,1338,5.75
RTM,Rotterdam,NL,Rotterdam,Zuid-Holland,51.956944,4.437222,-5,1
EIN,Eindhoven,NL,Eindhoven,Noord-Brabant,51.450139,5.374528,23,1
MST,Maastricht,NL,Maastricht,Limburg,50.911658,5.770144,114,1
AMS,Schiphol,NL,Amsterdam,Noord-Holland,52.308613,4.763889,-3,1
INU,Nauru Intl,NAU,Yaren,Nauru,-0.5475,166.9192,7,12
NOU,La Tontouta,NCL,Noumea,New Caledonia,-22.014553,166.212972,16,11
HLZ,Hamilton,NZ,Hamilton,New Zealand,-37.866661,175.332056,52,12
WLG,Wellington Intl,NZ,Wellington,New Zealand,-41.327221,174.805278,13,12
CHC,Christchurch Intl,NZ,Christchurch,New Zealand,-43.489358,172.532225,38,12
AKL,Auckland Intl,NZ,Auckland,New Zealand,-37.008056,174.791667,7,12
DUD,Dunedin,NZ,Dunedin,New Zealand,-45.928055,170.198333,1,12
MGA,Managua Intl,NIC,Managua,Nicaragua,12.141494,-86.168178,59,-6
NIM,Diori Hamani,RN,Niamey,Niamey,13.481547,2.183614,223,1
MIU,Maiduguri,NGR,Maiduguri,Borno,11.855347,13.08095,335,1
PHC,Port Harcourt Intl,NGR,Port Harcourt,Rivers,5.015494,6.949594,27,1
JOS,Yakubu Gowon,NGR,Jos,Plateau,9.639828,8.86905,1290,1
SKO,Sadiq Abubakar Iii Intl,NGR,Sokoto,Sokoto,12.916322,5.207189,308,1
LOS,Murtala Muhammed,NGR,Lagos,Lagos,6.577369,3.321156,41,1
BNI,Benin,NGR,Benin,Edo,6.316981,5.599503,79,1
KAD,Kaduna,NGR,Kaduna,Kaduna,10.696025,7.320114,632,1
KAN,Mallam Aminu Intl,NGR,Kano,Kano,12.047589,8.524622,476,1
CBQ,Calabar,NGR,Calabar,Cross River,4.976019,8.347197,64,1
ABV,Nnamdi Azikiwe Intl,NGR,Abuja,Abuja,9.006792,7.263172,342,1
ENU,Enugu,NGR,Enugu,Enugu,6.474272,7.561961,142,1
YOL,Yola,NGR,Yola,Adamawa,9.257553,12.430422,183,1
ILR,Ilorin,NGR,Ilorin,Kwara,8.440211,4.493919,343,1
IUE,Niue Intl,NU,Alofi,Niue,-19.0533,-169.9256,64,-11
NLK,Norfolk Island Intl,NF,Kingston,Norfolk Island,-29.041625,167.938742,113,11.5
SPN,Francisco C Ada Saipan Intl,MP,Saipan,Northern Mariana Islands,15.119003,145.729356,66,10
FNJ,Pyongyang Sunan Int,KP,Pyongyang,North Korea,39.2239,126.67,36,9
SKE,Geiteryggen,N,Skien,Telemark,59.185,9.566944,141,1
VDS,Vadsoe,N,Vadsø,Finnmark,70.065,29.844,39,1
NVK,Framnes,N,Narvik,Nordland,68.435833,17.388056,30,1
OSL,Gardermoen,N,Oslo,Oslo,60.193917,11.100361,208,1
RYG,Moss,N,Moss,Østfold,59.378933,10.785389,53,1
LYR,Longyear,SVA,Longyearbyen,Svalbard,78.246111,15.465556,27,1
MOL,Aro,N,Molde,Møre og Romsdal,62.744722,7.2625,3,1
KRS,Kjevik,N,Kristiansand,Vest-Agder,58.204214,8.085369,17,1
SVG,Sola,N,Stavanger,Rogaland,58.876778,5.637856,9,1
TRD,Vaernes,N,Trondheim,Sør-Trøndelag,63.457556,10.92425,17,1
BGO,Flesland,N,Bergen,Hordaland,60.293386,5.218142,52,1
HFT,Hammerfest Airport,N,Hammerfest,Finnmark,70.679722,23.668889,244,1
MCT,Seeb Intl,OM,Muscat,Oman,23.593278,58.284444,15,4
ISB,Chaklala,PK,Islamabad,FCT Islamabad,33.616653,73.099233,509,5
KHI,Jinnah Intl,PK,Karachi,Sindh,24.906547,67.160797,30,5
LHE,Allama Iqbal Intl,PK,Lahore,Punjab,31.521564,74.403594,217,5
LYP,Faisalabad Intl,PK,Faisalabad,Punjab,31.365014,72.994842,180,5
SKZ,Sukkur,PK,Sukkur,Sindh,27.721989,68.791683,60,5
SKT,Sialkot Airport,PK,Sialkot,Punjab,32.5356,74.3639,247,5
RYK,Sheikh Zayed,PK,Rahimyar Khan,Punjab,28.3839,70.279572,83,5
UET,Quetta,PK,Quetta,Balochistan,30.251369,66.937764,1606,5
PEW,Peshawar Intl,PK,Peshawar,Khyber Pakhtunkhwa,33.993911,71.514581,353,5
MUX,Multan Intl,PK,Multan,Punjab,30.203222,71.419111,123,5
ROR,Babelthuap,PAL,Ngerulmud,Palau,7.367303,134.544278,54,9
BOC,Bocas del Toro Intl,PA,Bocas del Toro,Bocas del Toro,9.340853,-82.250842,3,-5
PTY,Tocumen Intl,PA,Panamá City,Panamá,9.071364,-79.383453,41,-5
POM,Port Moresby Jacksons Intl,PNG,Port Moresby,South,-9.443383,147.22005,45,10
LAE,Lae Nadzab,PNG,Lae,North,-6.5698,146.7262,73,10
AGT,Ciudad del Este,PY,Ciudad del Este,Paraguay,-25.4555,-54.843592,258,-4
ASU,Silvio Pettirossi Intl,PY,Asunción,Paraguay,-25.23985,-57.519133,89,-4
CIX,Capt Jose A Quinones Gonzales Intl,PE,Chiclayo,Lambayeque,-6.787475,-79.828097,30,-5
TRU,Capitan Carlos Martinez De Pinillos,PE,Trujillo,La Libertad,-8.081411,-79.108761,32,-5
HUU,Alferez Fap David Figueroa Fernandini Airport,PE,Huánuco,Huánuco,-9.878811,-76.204797,1851,-5
AYP,Coronel Fap Alfredo Mendivil Duarte,PE,Ayacucho,Ayacucho,-13.154819,-74.204417,2719,-5
TBP,Pedro Canga,PE,Tumbes,Tumbes,-3.552528,-80.381356,35,-5
CJA,Mayor General FAP Armando Revoredo Iglesias Airport,PE,Cajamarca,Cajamarca,-7.139183,-78.4894,2677,-5
PIU,Capitan Fap Guillermo Concha Iberico,PE,Piura,Piura,-5.20575,-80.616444,37,-5
PCL,Cap Fap David Abenzur Rengifo Intl,PE,Pucallpa,Ucayali,-8.377939,-74.574297,156,-5
PEM,Padre Aldamiz,PE,Puerto Maldonado,Madre de Dios,-12.613611,-69.228611,201,-5
IQT,Coronel Francisco Secada Vignetta Intl,PE,Iquitos,Loreto,-3.784739,-73.308806,93,-5
AQP,Rodriguez Ballon,PE,Arequipa,Arequipa,-16.341072,-71.583083,2563,-5
JUL,Juliaca,PE,Juliaca,Puno,-15.467103,-70.158169,3827,-5
TPP,Cadete Guillermo Del Castillo Paredes,PE,Tarapoto,San Martín,-6.508742,-76.373247,265,-5
CUZ,Teniente Alejandro Velasco Astete Intl,PE,Cusco,Cusco,-13.535722,-71.938781,3311,-5
TCQ,Coronel Carlos Ciriani Santa Rosa Intl,PE,Tacna,Tacna,-18.053333,-70.275833,469,-5
LIM,Jorge Chavez Intl,PE,Lima,Lima City,-12.021889,-77.114319,34,-5
CEB,Mactan Cebu Intl,RP,Cebu,Central Visayas,10.307542,123.979439,9,8
LGP,Legazpi,RP,Legazpi,Bicol,13.157064,123.746247,20,8
TAC,Daniel Z Romualdez,RP,Tacloban,Eastern Visayas,11.227628,125.027758,3,8
MNL,Ninoy Aquino Intl,RP,Manila,Metro Manila,14.508647,121.019581,23,8
BXU,Butuan,RP,Butuan,Caraga,8.951322,125.477972,43,8
ZAM,Zamboanga Intl,RP,Zamboanga,Zamboanga Peninsula,6.922419,122.059633,10,8
ILO,Iloilo,RP,Iloilo,Western Visayas,10.713044,122.545297,8,8
PPS,Puerto Princesa,RP,Calapan,Mimaropa,9.742119,118.758731,22,8
PAG,Pagadian,RP,Pagadian,Zamboanga Peninsula,7.827197,123.458294,2,8
GES,General Santos International Airport,RP,General Santos,Soccsksargen,6.106439,125.2353,9,8
DVO,Francisco Bangoy International,RP,Davao,Davao,7.125522,125.645778,18,8
BCD,Bacolod,RP,Bacolod,Western Visayas,10.642511,122.929617,8,8
CBO,Cotabato,RP,Cotabato,Muslim Mindanao,7.165242,124.209619,58,8
KRK,Balice,PL,Kraków,Małopolskie,50.077731,19.784836,241,1
KTW,Pyrzowice,PL,Katowice,Śląskie,50.474253,19.080019,303,1
BZG,Bydgoszcz Ignacy Jan Paderewski Airport,PL,Bydgoszcz,Kujawsko-Pomorskie,53.0968,17.9777,72,1
SZZ,Goleniow,PL,Szczecin,Zachodniopomorskie,53.584731,14.902206,47,1
GDN,Lech Walesa,PL,Gdańsk,Pomorskie,54.377569,18.466222,149,1
RZE,Jasionka,PL,Rzeszów,Podkarpackie,50.109958,22.019,206,1
POZ,Lawica,PL,Poznań,Wielkopolskie,52.421031,16.826325,94,1
WRO,Strachowice,PL,Wrocław,Dolnośląskie,51.102683,16.885836,123,1
LCJ,Lodz Wladyslaw Reymont Airport,PL,Łódź,Łódzkie,51.721881,19.398133,184,1
WAW,Okecie,PL,Warszawa,Mazowieckie,52.16575,20.967122,110,1
FAO,Faro,P,Faro,Algarve,37.014425,-7.965911,7,0
FLW,Flores,P,,,39.455272,-31.131361,34,-1
LIS,Portela,P,Lisboa,Lisboa,38.781311,-9.135919,114,0
PXO,Porto Santo,P,,,33.073386,-16.349975,104,0
GRW,Graciosa,P,,,39.092169,-28.029847,26,-1
SJZ,Sao Jorge,P,,,38.6655,-28.175817,95,-1
CVU,Corvo Airport,P,,,39.6715,-31.1136,19,-1
SMA,Santa Maria,P,,,36.97139,-25.170639,94,-1
FNC,Madeira,P,Funchal,Madeira,32.697889,-16.774453,59,0
PIX,Pico,P,,,38.554333,-28.441333,33,-1
TER,Lajes,P,,,38.761842,-27.090797,55,-1
OPO,Porto,P,Oporto,Porto,41.248055,-8.681389,70,0
PDL,Ponta Delgada,P,Ponta Delgada,Azores,37.741184,-25.69787,79,-1
SJU,Luis Munoz Marin Intl,PR,San Juan,Puerto Rico,18.439417,-66.001833,3,-4
DOH,Doha Intl,Q,Doha,Qatar,25.261125,51.565056,11,4
RUN,St Denis Gillot,RE,Saint-Denis,Reunion,-20.8871,55.510308,20,5
IAS,Iasi,RO,Iaşi,Iaşi,47.178492,27.620631,121,2
SBZ,Sibiu,RO,Sibiu,Sibiu,45.785597,24.091342,456,2
BAY,Tautii Magheraus,RO,Baia Mare,Maramureş,47.658389,23.470022,184,2
SCV,Stefan Cel Mare,RO,Suceava,Suceava,47.6875,26.354056,419,2
CLJ,Cluj Napoca,RO,Cluj-Napoca,Cluj,46.785167,23.686167,316,2
TSR,Traian Vuia,RO,Timişoara,Timiş,45.809861,21.337861,106,2
BCM,Bacau,RO,Bacău,Bacău,46.521946,26.910278,185,2
OMR,Oradea,RO,Oradea,Bihor,47.025278,21.9025,142,2
OTP,Henri Coanda,RO,Bucureşti,Bucureşti,44.572161,26.102178,96,2
SUJ,Satu Mare,RO,Satu Mare,Satu-Mare,47.703275,22.8857,123,2
ARW,Arad,RO,Arad,Arad,46.17655,21.262022,107,2
KGD,Khrabrovo,R,Kaliningrad,Kaliningradskaya,54.89005,20.592633,13,2
MMK,Murmansk,R,Murmansk,Murmanskaya,68.781672,32.750822,81,3
PES,Petrozavodsk Airport,R,Petrozavodsk,Karelia,61.8852,34.1547,46,3
ARH,Talagi,R,Arkhangelsk,Arkhangelskaya,64.360281,40.430167,6,4
SCW,Syktyvkar,R,Syktyvkar,Komi,61.64705,50.84505,104,3
VKT,Vorkuta Airport,R,Vorkuta,Komi,67.4886,63.9931,184,3
KVX,Pobedilovo Airport,R,Kirov,Kirovskaya,58.5033,49.3483,146,4
LED,Pulkovo,R,Sankt Peterburg,Sankt-Peterburg,59.800292,30.262503,24,3
EGO,Belgorod International Airport,R,Belgorod,Belgorodskaya,50.6438,36.5901,224,3
DME,Domododevo,R,Moskva,Moscow,55.408611,37.906111,179,3
SVO,Sheremetyevo,R,Moskva,Moscow,55.972642,37.414589,190,3
VKO,Vnukovo,R,Moskva,Moscow,55.591531,37.261486,209,3
GOJ,Strigono,R,Nizhnii Novgorod,Nizhnii Novgorodskaya,56.23,43.785,78,3
CEE,Cherepovets Airport,R,Cherepovets,Vologodskaya,59.2736,38.0158,115,3
KZN,Kazan,R,Kazan,Tatarstan,55.606186,49.278728,125,3
CSY,Cheboksary Airport,R,Cheboksary,Chuvashia,56.0903,47.3473,170,3
TBW,Tambow,R,Tambov,Tambovskaya,52.81,41.48,38,4
VOZ,Chertovitskoye,R,Voronezh,Voronezhskaya,51.814211,39.229589,157,3
VOG,Gumrak,R,Volgograd,Volgogradskaya,48.782528,44.345544,147,3
ROV,Rostov Na Donu,R,Rostov-na-Donu,Rostovskaya,47.258208,39.818089,85,3
STW,Shpakovskoye,R,Stavropol,Stavropolskiy,45.109165,42.112778,453,4
AER,Sochi,R,Sochi,Krasnodarskiy,43.449928,39.956589,27,3
KRR,Pashkovskiy,R,Krasnodar,Krasnodarskiy,45.034689,39.170539,36,3
ESL,Elista Airport,R,Elista,Kalmykiya,46.3739,44.3309,153,3
NAL,Nalchik Airport,R,Nalčik,Kabardino-Balkarskaya,43.5129,43.6366,445,3
GRV,Grozny Airport,R,Grozny,Chechenskaya,43.2981,45.7841,167,3
MCX,Uytash,R,Makhachkala,Dagestan,42.816822,47.652294,4,3
KUF,Kurumoch,R,Samara,Samarskaya,53.5,50.15,145,4
ULY,Ulyanovsk East Airport,R,Ulyanovsk,Ulyanovskaya,54.401,48.8027,77,4
ASF,Astrakhan,R,Astrakhan,Astrakhanskaya,46.283333,48.006278,-20,4
IJK,Izhevsk Airport,R,Izhevsk,Udmurtskaya,56.8281,53.4575,162,4
PEE,Bolshoye Savino,R,Perm,Permskij,57.914517,56.021214,123,5
UFA,Ufa,R,Ufa,Bashkortostan,54.557511,55.874417,137,6
REN,Orenburg,R,Orenburg,Orenburgskaya,51.795786,55.456744,118,5
MQF,Magnitogorsk,R,Magnitogorsk,Chelyabinskaya,53.393131,58.755661,436,6
OSW,Orsk Airport,R,Orsk,Orenburgskaya,51.0725,58.5956,277,5
SVX,Koltsovo,R,Yekaterinburg,Sverdlovskaya,56.743108,60.802728,233,5
CEK,Balandino,R,Chelyabinsk,Chelyabinskaya,55.305836,61.503333,234,5
TJM,Roschino,R,Tyumen,Tyumenskaya,57.189567,65.3243,115,5
SLY,Salekhard Airport,R,Salekhard,Tyumenskaya,66.590753,66.611042,66,6
NUX,Novyi Urengoy,R,Novyj Urengoj,Tyumenskaya,66.041811,76.313938,6,6
HMA,Khanty Mansiysk Airport,R,Khanty Mansijsk,Tyumenskaya,61.028479,69.086067,23,5
SGC,Surgut,R,Surgut,Tyumenskaya,61.343694,73.401842,61,6
NOJ,Noyabrsk,R,Nojabrsk,Tyumenskaya,63.110079,75.162243,6,6
NJC,Nizhnevartovsk,R,Nizhnevartovsk,Tyumenskaya,60.949272,76.483617,54,5
OMS,Omsk,R,Omsk,Omskaya,54.967042,73.310514,95,6
OVB,Tolmachevo,R,Novosibirsk,Novosibirskaya,55.012622,82.650656,111,7
BAX,Barnaul,R,Barnaul,Altayskiy,53.363775,83.538533,255,7
TOF,Tomsk Bogashevo Airport,R,Tomsk,Tomskaya,56.380278,85.208333,182,7
KEJ,Kemerovo,R,Kemerovo,Kemerovskaya,55.270094,86.107208,263,7
NOZ,Spichenkovo Airport,R,Novokuznetsk,Kemerovskaya,53.8114,86.8772,312,7
NSK,Alykel,R,Norilsk,Krasnoyarsk,69.311053,87.332183,181,7
ABA,Abakan,R,Abakan,Khakasiya,53.74,91.385,253,7
KJA,Emelyanovo,R,Krasnoyarsk,Krasnoyarsk,56.18,92.475,287,7
BTK,Bratsk,R,Bratsk,Irkutskaya,56.370556,101.698331,491,8
IKT,Irkutsk,R,Irkutsk,Irkutskaya,52.268028,104.388975,511,8
UUD,Mukhino,R,Ulan-Ude,Buryatiya,51.807764,107.437644,515,8
HTA,Kadala,R,Chita,Zabaykalskiy,52.026317,113.305556,693,9
BQS,Ignatyevo,R,Blagoveščensk,Amurskaya,50.425394,127.412478,195,9
YKS,Yakutsk,R,Yakutsk,Sakha,62.09325,129.770672,99,9
VVO,Knevichi,R,Vladivostok,Primorskiy,43.398953,132.148017,14,10
KHV,Khabarovsk Novy,R,Khabarovsk,Khabarovskiy,48.528044,135.188361,74,10
UUS,Khomutovo,R,Južno-Sachalinsk,Sakhalin,46.888672,142.717531,18,11
ITU,Iturup,R,,,45.25,147.95,118,11
GDX,Sokol,R,Magadan,Magadanskaya,59.910989,150.720439,175,11
PKC,Yelizovo,R,Petropavlovsk-Kamčatskij,Kamchatka,53.167889,158.453669,40,12
KGL,Kigali Intl,RWA,Kigali,Rwanda,-1.968628,30.13945,1481,2
SKB,Robert L Bradshaw,KN,Basseterre,Saint Kitts and Nevis,17.311194,-62.718667,52,-4
UVF,Hewanorra Intl,WL,Castries,Saint Lucia,13.733194,-60.952597,4,-4
SLU,George F L Charles,WL,Castries,Saint Lucia,14.020228,-60.992936,7,-4
SFP,Saint-Pierre,SPM,Saint-Pierre,Saint Pierre and Miquelon,46.7631,-56.1742,8,-2
SVD,E T Joshua,WV,Kingstown,Saint Vincent and the Grenadines,13.144306,-61.210861,20,-4
APW,Faleolo Intl,WS,Apia,Samoa,-13.829969,-172.008336,18,13
TMS,Sao Tome Intl,STP,São Tomé,Sao Tome and Principe,0.378175,6.712153,10,0
TIF,Taif,SA,At Taif,Makkah Al-Mokarramah,21.483418,40.544334,1478,3
DMM,King Fahd Intl,SA,Ad-Dammam,Ash Sharqiyah,26.471161,49.79789,22,3
HAS,Hail,SA,Hail,Hail,27.437917,41.686292,1016,3
JED,King Abdulaziz Intl,SA,Jeddah,Makkah Al-Mokarramah,21.679564,39.156536,15,3
RUH,King Khaled Intl,SA,Riyadh,Ar-Riyadh,24.95764,46.698776,625,3
MED,Prince Mohammad Bin Abdulaziz,SA,Al Madinah,Al-Madinah Al-Monawarah,24.553422,39.705061,656,3
ZIG,Ziguinchor,SN,Ziguinchor,Ziguinchor,12.555617,-16.281783,23,0
DKR,Leopold Sedar Senghor Intl,SN,Dakar,Dakar,14.739708,-17.490225,26,0
PRN,Pristina,KOS,Prishtine,Kosovo,42.572778,21.035833,545,1
BEG,Beograd,SRB,Beograd,Serbia,44.818444,20.309139,102,1
INI,Nis,SRB,Niš,Serbia,43.337289,21.853722,198,1
SEZ,Seychelles Intl,SY,Victoria,Seychelles,-4.674342,55.521839,3,4
FNA,Freetown Lungi,SLE,Freetown,Sierra Leone,8.616444,-13.195489,26,0
SIN,Changi Intl,SGP,Singapore,Singapore,1.350189,103.994433,7,8
SXM,Princess Juliana Intl,SX,Philipsburg,Sint Maarten,18.040953,-63.1089,4,-4
BTS,M R Stefanik,SK,Bratislava,Bratislavský,48.170167,17.212667,133,1
KSC,Kosice,SK,Košice,Košický,48.663055,21.241112,230,1
LJU,Ljubljana,SLO,Ljubljana,Slovenia,46.223686,14.457611,388,1
HIR,Honiara International,SOL,Honiara,Solomon Islands,-9.428,160.054789,9,11
MGQ,Aden Adde International Airport,SO,Mogadishu,Somalia,2.01444,45.3047,9,3
HLA,Lanseria,RSA,Johannesburg,Gauteng,-25.938514,27.926133,1377,2
PZB,Pietermaritzburg,RSA,Msunduzi,KwaZulu-Natal,-29.648975,30.398667,739,2
DUR,Durban Intl,RSA,eThekwini,KwaZulu-Natal,-29.970089,30.950519,10,2
ELS,East London,RSA,Buffalo City,Eastern Cape,-33.035569,27.825939,133,2
BFN,Bloemfontein Intl,RSA,Mangaung,Free State,-29.092722,26.302444,1359,2
KIM,Kimberley,RSA,Kimberley,Northern Cape,-28.802834,24.765167,1204,2
PLZ,Port Elizabeth Intl,RSA,Nelson Mandela Bay,Eastern Cape,-33.984919,25.617275,69,2
PTG,Pietersburg,RSA,Polokwane,Limpopo,-23.926089,29.484422,1327,2
CPT,Cape Town Intl,RSA,Cape Town,Western Cape,-33.964806,18.601667,46,2
JNB,Johannesburg Intl,RSA,Johannesburg,Gauteng,-26.139166,28.246,1695,2
RSU,Yeosu,ROK,Yeosu,South Korea,34.842328,127.61685,16,9
ICN,Incheon Intl,ROK,Seoul,South Korea,37.469075,126.450517,7,9
PUS,Gimhae Intl,ROK,Busan,South Korea,35.179528,128.938222,2,9
GMP,Gimpo,ROK,Seoul,South Korea,37.558311,126.790586,18,9
USN,Ulsan,ROK,Ulsan,South Korea,35.593494,129.351722,14,9
KWJ,Gwangju,ROK,Gwangju,South Korea,35.126389,126.808889,12,9
TAE,Daegu Ab,ROK,Daegu,South Korea,35.894108,128.658856,35,9
CJU,Jeju Intl,ROK,Jeju,South Korea,33.511306,126.493028,36,9
JUB,Juba,SSD,Juba,South Sudan,4.872006,31.601117,461,2
VDE,Hierro,E,,,27.814847,-17.887056,31,0
SDR,Santander,E,Santander,Cantabria,43.427064,-3.820006,5,1
SPC,La Palma,E,,,28.626478,-17.755611,33,0
LPA,Gran Canaria,E,Las Palmas de Gran Canaria,Canarias,27.931886,-15.386586,24,0
SLM,Salamanca,E,Salamanca,Castilla y León,40.952117,-5.501986,791,1
TFN,Tenerife Norte,E,Santa Cruz de Tenerife,Canarias,28.482653,-16.341536,632,0
AGP,Malaga,E,Málaga,Andalucía,36.6749,-4.499106,16,1
BIO,Bilbao,E,Bilbao,Euskadi,43.301097,-2.910608,42,1
TFS,Tenerife Sur,E,Santa Cruz de Tenerife,Canarias,28.044475,-16.572489,64,0
BJZ,Talavera La Real,E,Badajoz,Extremadura,38.89125,-6.821333,186,1
ALC,Alicante,E,Alicante,Valenciana,38.282169,-0.558156,43,1
BCN,Barcelona,E,Barcelona,Catalunya,41.297078,2.078464,4,1
ACE,Lanzarote,E,Las Palmas de Gran Canaria,Canarias,28.945464,-13.605225,14,0
VGO,Vigo,E,Vigo,Galicia,42.2318,-8.626775,261,1
MLN,Melilla,MEL,Melilla,Melilla,35.279817,-2.956256,48,0
MJV,Murcia San Javier,E,Murcia,Murcia,37.774972,-0.812389,3,1
GMZ,La Gomera Airport,E,,,28.0296,-17.2146,219,0
FUE,Fuerteventura,E,,,28.452717,-13.863761,25,0
XRY,Jerez,E,Jerez de la Frontera,Andalucía,36.744622,-6.060111,28,1
PMI,Son Sant Joan,E,Palma de Mallorca,Illes Balears,39.55361,2.727778,7,1
PNA,Pamplona,E,Pamplona,Navarra,42.770039,-1.646331,459,1
GRX,Granada,E,Granada,Andalucía,37.188731,-3.777356,567,1
IBZ,Ibiza,E,,,38.872858,1.373117,6,1
ZAZ,Zaragoza Ab,E,Zaragoza,Aragón,41.666242,-1.041553,263,1
REU,Reus,E,Reus,Catalunya,41.147392,1.167172,71,1
EAS,San Sebastian,E,Donostia,Euskadi,43.356519,-1.790611,5,1
MAD,Barajas,E,Madrid,Madrid,40.493556,-3.566764,610,1
MAH,Menorca,E,,,39.862597,4.218647,91,1
VLC,Valencia,E,Valencia,Valenciana,39.489314,-0.481625,69,1
VLL,Valladolid,E,Valladolid,Castilla y León,41.706111,-4.851944,846,1
SVQ,Sevilla,E,Sevilla,Andalucía,37.418,-5.893106,34,1
LCG,A Coruna,E,A Coruña,Galicia,43.302061,-8.377256,99,1
LEI,Almeria,E,Almería,Andalucía,36.843936,-2.370097,21,1
SCQ,Santiago,E,Santiago de Compostela,Galicia,42.896333,-8.415144,370,1
CMB,Bandaranaike Intl Colombo,CL,Colombo,Sri Lanka,7.180756,79.884117,9,5.5
KRT,Khartoum,SUD,Khartoum,Al-Kharṭūm,15.589497,32.553161,386,2
PBM,Johan A Pengel Intl,SME,Paramaribo,Suriname,5.452831,-55.187783,18,-3
MTS,Matsapha,SD,Mbabane,Eswatini,-26.529022,31.307519,633,2
VXO,Kronoberg,S,Växjö,Kronoberg,56.929144,14.727994,186,1
VBY,Visby,S,Visby,Gotland,57.662797,18.346211,50,1
NRK,Kungsangen,S,Norrköping,Östergötland,58.586253,16.250622,10,1
LLA,Kallax,S,Lulea,Norrbotten,65.543758,22.121989,20,1
LPI,Saab,S,Linköping,Östergötland,58.40615,15.680508,52,1
AGH,Angelholm-Helsingborg Airport,S,Helsingborg,Skåne,56.2961,12.8471,21,1
KID,Kristianstad,S,Kristianstad,Skåne,55.921686,14.085536,23,1
BMA,Bromma,S,Stockholm,Stockholm,59.354372,17.94165,14,1
KLR,Kalmar,S,Kalmar,Kalmar,56.685531,16.287578,5,1
UME,Umea,S,Umeå,Västerbotten,63.791828,20.282758,7,1
NYO,Skavsta,S,Stockholm,Stockholm,58.788636,16.912189,43,1
VST,Västerås,S,Västerås,Västmanland,59.589444,16.633611,6,1
HAD,Halmstad,S,Halmstad,Halland,56.691128,12.820211,31,1
JKG,Jönköping,S,Jönköping,Jönköping,57.757594,14.068731,226,1
OSD,Östersund Airport,S,Ostersund,Jämtland,63.1944,14.5003,376,1
ORB,Örebro,S,Örebro,Örebro,59.223733,15.037956,57,1
GOT,Landvetter,S,Göteborg,Västra Götaland,57.662836,12.279819,154,1
GSE,Save,S,Göteborg,Västra Götaland,57.774722,11.870372,18,1
ARN,Arlanda,S,Stockholm,Stockholm,59.651944,17.918611,42,1
MMX,Sturup,S,Malmö,Skåne,55.530193,13.371639,72,1
KSD,Karlstad Airport,S,Karlstad,Värmland,59.4447,13.3374,107,1
BRN,Bern Belp,CH,Bern,Bern,46.9141,7.497153,510,1
LUG,Lugano,CH,Lugano,Ticino,46.004275,8.910578,279,1
BSL,EuroAirport Basel-Mulhouse-Freiburg,CH,Basel,Basel-Stadt,47.59,7.529167,270,1
ZRH,Zurich Kloten,CH,Zürich,Zürich,47.464722,8.549167,432,1
GVA,Geneva Cointrin,CH,Genève,Genève,46.238064,6.10895,430,1
ACH,St Gallen Altenrhein,CH,Sankt Gallen,Sankt Gallen,47.485033,9.560775,398,1
DAM,Damaskus Intl,SYR,Dimashq,Dimashq,33.4115,36.5156,616,2
ALP,Aleppo Intl,SYR,Halab,Halab,36.1806,37.2242,383,2
KHH,Kaohsiung Intl,RC,Kaohsiung,Taiwan,22.577094,120.350006,9,8
TSA,Sungshan,RC,Taipei,Taiwan,25.069722,121.5525,5,8
TPE,Taoyuan Intl,RC,Taipei,Taiwan,25.077731,121.232822,32,8
DYU,Dushanbe,TJ,Dushanbe,Dushanbe,38.543333,68.825,785,5
TJU,Kulob Airport,TJ,Kulyab,Khatlon,37.981667,69.799444,699,5
LBD,Khudzhand Airport,TJ,Khujand,Sughd,40.2154,69.6947,442,5
ZNZ,Zanzibar,EAT,Zanzibar,Zanzibar,-6.222025,39.224886,16,3
JRO,Kilimanjaro Intl,EAT,Moshi,Kilimanjaro,-3.429406,37.074461,894,3
MYW,Mtwara,EAT,Mtwara,Mtwara,-10.339058,40.181781,113,3
DAR,Mwalimu Julius K Nyerere Intl,EAT,Dar es Salaam,Dar es Salaam,-6.878111,39.202625,55,3
MWZ,Mwanza,EAT,Mwanza,Mwanza,-2.444486,32.932667,1147,3
ARK,Arusha,EAT,Arusha,Arusha,-3.367794,36.633333,1387,3
DMK,Don Muang Intl,THA,Bangkok,Thailand,13.912583,100.60675,3,7
NST,Nakhon Si Thammarat,THA,Nakhon Si Thammarat,Thailand,8.539617,99.944725,4,7
USM,Samui,THA,,,9.547794,100.062272,20,7
KKC,Khon Kaen,THA,Khon Kaen,Thailand,16.466628,102.783661,204,7
BKK,Suvarnabhumi Intl,THA,Bangkok,Thailand,13.681108,100.747283,2,7
CNX,Chiang Mai Intl,THA,Chiang Mai,Thailand,18.766847,98.962644,316,7
HDY,Hat Yai Intl,THA,Songkhla,Thailand,6.933206,100.392975,27,7
HKT,Phuket Intl,THA,Phuket,Thailand,8.1132,98.316872,25,7
LFW,Gnassingbe Eyadema Intl,RT,Lomé,Togo,6.165611,1.254511,22,1
TBU,Fua Amotu Intl,TO,Nukualofa,Tonga,-21.241214,-175.149644,38,13
POS,Piarco,TT,Port-of-Spain,Trinidad and Tobago,10.595369,-61.337242,18,-4
SFA,Thyna,TN,Sfax,Tunisia,34.717953,10.690972,26,1
TUN,Carthage,TN,Tunis,Tunisia,36.851033,10.227217,7,1
AYT,Antalya,TR,Antalya,Antalya,36.898731,30.800461,54,3
EZS,Elazig,TR,Elazig,Elazığ,38.606925,39.291417,892,3
KSY,Kars Airport,TR,Kars,Kars,40.562222,43.115002,1795,3
SZF,Samsun-Carsamba Airport,TR,Samsun,Samsun,41.2545,36.5671,5,3
KYA,Konya,TR,Konya,Konya,37.979,32.561861,1031,3
ADF,Adiyaman Airport,TR,Adiyaman,Adıyaman,37.7314,38.4689,676,3
BAL,Batman,TR,Batman,Batman,37.928969,41.116583,555,3
ADA,Adana,TR,Adana,Adana,36.982166,35.280388,20,3
ADB,Adnan Menderes,TR,İzmir,İzmir,38.292392,27.156953,126,3
VAN,Van,TR,Van,Van,38.468219,43.3323,1671,3
VAS,Sivas,TR,Sivas,Sivas,39.813828,36.903497,1596,3
NAV,Kapadokya,TR,Nevsehir,Nevşehir,38.771867,34.53455,945,3
ESB,Esenboga,TR,Ankara,Ankara,40.128082,32.995083,953,3
ERZ,Erzurum,TR,Erzurum,Erzurum,39.956501,41.170166,1757,3
ERC,Erzincan,TR,Erzincan,Erzincan,39.710203,39.527003,1153,3
KCM,Kahramanmaras Airport,TR,Kahramanmaraş,Kahramanmaraş,37.539,36.9534,525,3
MLX,Erhac,TR,Malatya,Malatya,38.435347,38.091006,862,3
DIY,Diyarbakir,TR,Diyarbakir,Diyarbakır,37.893897,40.201019,686,3
ASR,Erkilet,TR,Kayseri,Kayseri,38.770386,35.495428,1056,3
TZX,Trabzon,TR,Trabzon,Trabzon,40.995108,39.789728,32,3
IST,Atatürk,TR,İstanbul,İstanbul,40.976922,28.814606,50,3
SAW,Sabiha Gokcen,TR,İstanbul,İstanbul,40.898553,29.309219,95,3
GZT,Oguzeli,TR,Gaziantep,Gaziantep,36.947183,37.478683,706,3
HTY,Hatay Airport,TR,Hatay,Hatay,36.362778,36.282222,8,3
AJI,Agri Airport,TR,Agri,Ağrı,39.6546,43.0271,1665,3
AOE,Anadolu Airport,TR,Eskisehir,Eskişehir,39.809858,30.519378,789,3
MQM,Mardin Airport,TR,Mardin,Mardin,37.2233,40.6317,527,3
DNZ,Cardak,TR,Denizli,Denizli,37.785567,29.701297,852,3
MSR,Mus Airport,TR,Mus,Muş,38.747769,41.661236,1267,2
ASB,Ashgabat,TM,Ashgabat,Ashgabat,37.986814,58.360967,211,5
PLS,Providenciales,TUCA,Grand Turk,Turks and Caicos Islands,21.773625,-72.265886,5,-5
FUN,Funafuti International,TUV,Funafuti,Tuvalu,-8.525,179.196389,3,12
EBB,Entebbe Intl,EAU,Kampala,Central,0.042386,32.443503,1153,3
DOK,Donetsk Intl,UA,Donetsk,Donetska,48.073611,37.739722,241,2
KBP,Boryspil Intl,UA,Kyïv,Kyïv,50.345,30.894722,130,2
HRK,Osnova International Airport,UA,Charkiv,Charkivska,49.924786,36.289986,155,2
IEV,Zhuliany Intl,UA,Kyïv,Kyïv,50.401694,30.449697,179,2
SIP,Simferopol Intl,UA,Simferopol,Krym,45.052222,33.975139,195,2
UDJ,Uzhhorod International Airport,UA,Uzhhorod,Zakarpatska,48.634278,22.263356,117,2
DNK,Dnipropetrovsk Intl,UA,Dnipro,Dnipropetrovska,48.357222,35.100556,147,2
IFO,Ivano Frankivsk International Airport,UA,Ivano-Frankivsk,Ivano-Frankivska,48.884167,24.686111,280,2
ODS,Odesa Intl,UA,Odesa,Odeska,46.426767,30.676464,52,2
LWO,Lviv Intl,UA,Lviv,Lvivska,49.8125,23.956111,327,2
AUH,Abu Dhabi Intl,UAE,Abu Dhabi,United Arab Emirates,24.432972,54.651138,27,4
AAN,Al Ain International Airport,UAE,Al Ain,United Arab Emirates,24.261667,55.609167,265,4
DXB,Dubai Intl,UAE,Dubai,United Arab Emirates,25.252778,55.364444,19,4
SHJ,Sharjah Intl,UAE,Al Sharjah,United Arab Emirates,25.328575,55.51715,34,4
STN,Stansted,GB,London,London,51.885,0.235,106,0
LBA,Leeds Bradford,GB,Leeds,Yorkshire and the Humber,53.865897,-1.660569,208,0
LCY,City,GB,London,London,51.505278,0.055278,6,0
LGW,Gatwick,GB,London,London,51.148056,-0.190278,62,0
LHR,Heathrow,GB,London,London,51.4775,-0.461389,25,0
LPL,Liverpool,GB,Liverpool,North West England,53.333611,-2.849722,24,0
BHX,Birmingham,GB,Birmingham,West Midlands,52.453856,-1.748028,100,0
TRE,Tiree,GB,,,56.499167,-6.869167,12,0
BLK,Blackpool,GB,Blackpool,North West England,53.771667,-3.028611,10,0
BEB,Benbecula,GB,,,57.481111,-7.362778,6,0
ABZ,Dyce,GB,Aberdeen,Scotland,57.201944,-2.197778,66,0
BFS,Aldergrove,GB,Belfast,Northern Ireland,54.6575,-6.215833,82,0
BHD,City,GB,Belfast,Northern Ireland,54.618056,-5.8725,5,0
EXT,Exeter,GB,Exeter,South West England,50.734444,-3.413889,31,0
NCL,Newcastle,GB,Newcastle upon Tyne,North East England,55.0375,-1.691667,81,0
EMA,Nottingham East Midlands,GB,Nottingham,East Midlands,52.831111,-1.328056,93,0
NWI,Norwich,GB,Norwich,East of England,52.675833,1.282778,36,0
BOH,Bournemouth,GB,Bournemouth,South West England,50.78,-1.8425,12,0
DND,Dundee,GB,Dundee,Scotland,56.452499,-3.025833,5,0
DSA,Robin Hood Doncaster Sheffield Airport,GB,Sheffield,Yorkshire and the Humber,53.474722,-1.004444,17,0
MME,Durham Tees Valley Airport,GB,Middlesbrough,North East England,54.509189,-1.429406,37,0
MAN,Manchester,GB,Manchester,North West England,53.353744,-2.27495,78,0
EDI,Edinburgh,GB,Edinburgh,Scotland,55.95,-3.3725,41,0
SOU,Southampton,GB,Southampton,South East England,50.950261,-1.356803,13,0
LTN,Luton,GB,Luton,East of England,51.874722,-0.368333,160,0
BRR,Barra Airport,GB,,,57.0228,-7.44306,2,0
BRS,Bristol,GB,Bristol,South West England,51.382669,-2.719089,190,0
HUY,Humberside,GB,Kingston upon Hull,Yorkshire and the Humber,53.574444,-0.350833,37,0
ILY,Islay,GB,,,55.681944,-6.256667,17,0
GLO,Gloucestershire,GB,Gloucester,South West England,51.894167,-2.167222,31,0
GLA,Glasgow,GB,Glasgow,Scotland,55.871944,-4.433056,8,0
SEN,Southend,GB,Southend-on-Sea,East of England,51.571389,0.695556,15,0
CWL,Cardiff,GB,Cardiff,Wales,51.396667,-3.343333,67,0
KOI,Kirkwall,GB,Kirkwall,Scotland,58.957778,-2.905,15,0
LRD,Laredo Intl,USA,Laredo,Texas,27.54375,-99.461556,155,-6
CMH,Port Columbus Intl,USA,Columbus,Ohio,39.997972,-82.891889,248,-5
DSM,Des Moines Intl,USA,Des Moines,Iowa,41.533972,-93.663083,292,-6
DTW,Detroit Metro Wayne Co,USA,Detroit,Michigan,42.212444,-83.353389,197,-5
MSY,Louis Armstrong New Orleans Intl,USA,New Orleans,Louisiana,29.993389,-90.258028,1,-6
MSP,Minneapolis St Paul Intl,USA,Minneapolis,Minnesota,44.881956,-93.221767,256,-6
MSN,Dane Co Rgnl Truax Fld,USA,Madison,Wisconsin,43.139858,-89.337514,270,-6
FAR,Hector International Airport,USA,Fargo,North Dakota,46.92065,-96.8157639,275,-6
FAT,Fresno Yosemite Intl,USA,Fresno,California,36.776194,-119.71814,102,-8
ELP,El Paso Intl,USA,El Paso,Texas,31.80725,-106.377583,1207,-7
EVV,Evansville Regional,USA,Evansville,Indiana,38.036997,-87.532364,127,-6
EWR,Newark Liberty Intl,USA,Newark,New Jersey,40.6925,-74.168667,5,-5
EUG,Mahlon Sweet Fld,USA,Eugene,Oregon,44.124583,-123.211972,114,-8
ERI,Erie Intl Tom Ridge Fld,USA,Erie,Pennsylvania,42.082022,-80.176217,223,-5
MKE,General Mitchell Intl,USA,Milwaukee,Wisconsin,42.947222,-87.896583,220,-6
MKL,Mc Kellar Sipes Rgnl,USA,Jackson,Mississippi,35.599889,-88.915611,132,-6
DFW,Dallas Fort Worth Intl,USA,Dallas,Texas,32.896828,-97.037997,185,-6
MIA,Miami Intl,USA,Miami,Florida,25.79325,-80.290556,2,-5
MDT,Harrisburg Intl,USA,Harrisburg,Pennsylvania,40.193494,-76.763403,95,-5
MEM,Memphis Intl,USA,Memphis,Tennessee,35.042417,-89.976667,104,-6
MDW,Chicago Midway Intl,USA,Chicago,Illinois,41.785972,-87.752417,189,-6
MCI,Kansas City Intl,USA,Kansas City,Missouri,39.297606,-94.713905,313,-6
MCO,Orlando Intl,USA,Orlando,Florida,28.429394,-81.308994,29,-5
MOB,Mobile Rgnl,USA,Mobile,Alabama,30.691231,-88.242814,67,-6
MOD,Modesto City Co Harry Sham,USA,Modesto,California,37.625817,-120.954422,30,-8
SDF,Louisville International Airport,USA,Louisville,Kentucky,38.1740858,-85.7364989,153,-5
CLE,Cleveland Hopkins Intl,USA,Cleveland,Ohio,41.411689,-81.849794,241,-5
SEA,Seattle Tacoma Intl,USA,Seattle,Washington,47.449,-122.309306,132,-8
SFO,San Francisco Intl,USA,San Francisco,California,37.618972,-122.374889,4,-8
CHS,Charleston Afb Intl,USA,Charleston,West Virginia,32.898647,-80.040528,14,-5
SGF,Springfield Branson Natl,USA,Springfield,Missouri,37.245667,-93.388639,387,-6
SPS,Sheppard Afb Wichita Falls Muni,USA,Wichita Falls,Texas,33.988797,-98.491894,311,-6
LNK,Lincoln,USA,Lincoln,Nebraska,40.850971,-96.75925,372,-6
COS,City Of Colorado Springs Muni,USA,Colorado Springs,Colorado,38.805805,-104.700778,1886,-7
CLT,Charlotte Douglas Intl,USA,Charlotte,North Carolina,35.214,-80.943139,228,-5
ALB,Albany Intl,USA,Albany,New York,42.748267,-73.801692,87,-5
BNA,Nashville Intl,USA,Nashville-Davidson,Tennessee,36.124472,-86.678194,183,-6
TPA,Tampa Intl,USA,Tampa,Florida,27.975472,-82.53325,8,-5
BOI,Boise Air Terminal,USA,Boise City,Idaho,43.564361,-116.222861,875,-7
BOS,General Edward Lawrence Logan Intl,USA,Boston,Massachusetts,42.364347,-71.005181,6,-5
MVY,Martha's Vineyard,USA,,,41.391667,-70.615278,20,-5
ACK,Nantucket Mem,USA,,,41.253053,-70.060181,15,-5
AMA,Rick Husband Amarillo Intl,USA,Amarillo,Texas,35.219369,-101.705931,1100,-6
TOL,Toledo,USA,Toledo,Ohio,41.586806,-83.807833,209,-5
SYR,Syracuse Hancock Intl,USA,Syracuse,New York,43.111187,-76.106311,128,-5
CVG,Cincinnati Northern Kentucky Intl,USA,Cincinnati,Ohio,39.048836,-84.667822,273,-5
STL,Lambert St Louis Intl,USA,St. Louis,Missouri,38.748697,-90.370028,188,-6
CYS,Cheyenne Rgnl Jerry Olson Fld,USA,Cheyenne,Wyoming,41.155722,-104.811839,1877,-7
DAL,Dallas Love Fld,USA,Dallas,Texas,32.847111,-96.851778,148,-6
DAY,James M Cox Dayton Intl,USA,Dayton,Ohio,39.902375,-84.219375,308,-5
LAS,Mc Carran Intl,USA,Las Vegas,Nevada,36.080056,-115.15225,653,-8
LAN,Capital City,USA,Lansing,Michigan,42.7787,-84.587357,263,-5
CRP,Corpus Christi Intl,USA,Corpus Christi,Texas,27.770361,-97.501222,13,-6
SLC,Salt Lake City Intl,USA,Salt Lake City,Utah,40.788389,-111.977772,1289,-7
CRW,Yeager,USA,Charleston,West Virginia,38.373147,-81.593189,299,-5
CSG,Columbus Metropolitan Airport,USA,Columbus,Georgia,32.5163333,-84.9388611,121,-5
SMF,Sacramento Intl,USA,Sacramento,California,38.695417,-121.590778,8,-8
LUK,Cincinnati Muni Lunken Fld,USA,Cincinnati,Ohio,39.103333,-84.418611,147,-5
SNA,John Wayne Arpt Orange Co,USA,Santa Ana,California,33.675667,-117.868222,17,-8
LAX,Los Angeles Intl,USA,Los Angeles,California,33.942536,-118.408075,38,-8
LBB,Lubbock Preston Smith Intl,USA,Lubbock,Texas,33.663639,-101.822778,1001,-6
DEN,Denver Intl,USA,Denver,Colorado,39.861656,-104.673178,1656,-7
DCA,Ronald Reagan Washington Natl,USA,Washington,District of Columbia,38.852083,-77.037722,5,-5
LGB,Long Beach,USA,Long Beach,California,33.817722,-118.151611,18,-8
BNS,Barinas,YV,Barinas,Barinas,8.619575,-70.220825,203,-4
LGA,La Guardia,USA,New York,New York,40.777245,-73.872608,7,-5
CHA,Lovell Fld,USA,Chattanooga,Tennessee,35.035278,-85.203808,208,-5
SHV,Shreveport Rgnl,USA,Shreveport,Louisiana,32.446629,-93.8256,79,-6
LIT,Adams Fld,USA,Little Rock,Arkansas,34.729444,-92.224306,80,-6
SJC,Norman Y Mineta San Jose Intl,USA,San Jose,California,37.3626,-121.929022,19,-8
BHM,Birmingham Intl,USA,Birmingham,Alabama,33.562942,-86.75355,196,-6
BIS,Bismarck Municipal Airport,USA,Bismarck,North Dakota,46.775842,-100.757931,506,-6
BIL,Billings Logan International Airport,USA,Billings,Montana,45.80921,-108.537654,1113,-7
TUL,Tulsa Intl,USA,Tulsa,Oklahoma,36.198389,-95.888111,206,-6
TUS,Tucson Intl,USA,Tucson,Arizona,32.116083,-110.941028,806,-7
RNO,Reno Tahoe Intl,USA,Reno,Nevada,39.499108,-119.768108,1346,-8
BUF,Buffalo Niagara Intl,USA,Buffalo,New York,42.940525,-78.732167,221,-5
ATL,Hartsfield Jackson Atlanta Intl,USA,Atlanta,Georgia,33.636719,-84.428067,313,-5
BTR,Baton Rouge Metro Ryan Fld,USA,Baton Rouge,Louisiana,30.533167,-91.149639,21,-6
AUS,Austin Bergstrom Intl,USA,Austin,Texas,30.194528,-97.669889,165,-6
TYS,Mc Ghee Tyson,USA,Knoxville,Tennessee,35.810972,-83.994028,299,-5
BWI,Baltimore Washington Intl,USA,Baltimore,Maryland,39.175361,-76.668333,45,-5
CAK,Akron Canton Regional Airport,USA,Akron,Ohio,40.9160833,-81.4421944,374,-5
ABE,Lehigh Valley Intl,USA,Allentown,Pennsylvania,40.652083,-75.440806,120,-5
ABI,Abilene Rgnl,USA,Abilene,Texas,32.411319,-99.681897,546,-6
TLH,Tallahassee Rgnl,USA,Tallahassee,Florida,30.396528,-84.350333,25,-5
ACT,Waco Rgnl,USA,Waco,Texas,31.611289,-97.230519,157,-6
ABQ,Albuquerque International Sunport,USA,Albuquerque,New Mexico,35.0402222,-106.6091944,1633,-7
SAN,San Diego Intl,USA,San Diego,California,32.733556,-117.189667,5,-8
SAT,San Antonio Intl,USA,San Antonio,Texas,29.533694,-98.469778,247,-6
SAV,Savannah Hilton Head Intl,USA,Savannah,Georgia,32.127583,-81.202139,16,-5
PWM,Portland Intl Jetport,USA,Portland,Maine,43.646161,-70.309281,23,-5
PVD,Theodore Francis Green State,USA,Providence,Rhode Island,41.732581,-71.420383,17,-5
IND,Indianapolis Intl,USA,Indianapolis,Indiana,39.717331,-86.294383,243,-5
IAD,Washington Dulles Intl,USA,Washington,District of Columbia,38.944533,-77.455811,95,-5
IAH,George Bush Intcntl Houston,USA,Houston,Texas,29.984433,-95.341442,30,-6
ICT,Wichita Mid Continent,USA,Wichita,Kansas,37.649944,-97.433056,406,-6
HOU,William P Hobby,USA,Houston,Texas,29.645419,-95.278889,14,-6
ROC,Greater Rochester Intl,USA,Rochester,New York,43.118866,-77.672389,170,-5
FLL,Fort Lauderdale Hollywood Intl,USA,Fort Lauderdale,Florida,26.072583,-80.15275,3,-5
OMA,Eppley Afld,USA,Omaha,Nebraska,41.303167,-95.894069,300,-6
PDX,Portland Intl,USA,Portland,Oregon,45.588722,-122.5975,9,-8
ORF,Norfolk Intl,USA,Norfolk,Virginia,36.894611,-76.201222,8,-5
ORD,Chicago Ohare Intl,USA,Chicago,Illinois,41.978603,-87.904842,204,-6
FNT,Bishop International,USA,Flint,Michigan,42.965424,-83.743629,238,-5
PHX,Phoenix Sky Harbor Intl,USA,Phoenix,Arizona,33.434278,-112.011583,346,-7
PIT,Pittsburgh Intl,USA,Pittsburgh,Pennsylvania,40.491467,-80.232872,367,-5
PIR,Pierre Regional Airport,USA,Pierre,South Dakota,44.3827,-100.286,531,-6
PHL,Philadelphia Intl,USA,Philadelphia,Pennsylvania,39.871944,-75.241139,11,-5
HLN,Helena Rgnl,USA,Helena,Montana,46.606806,-111.98275,1182,-7
GEG,Spokane Intl,USA,Spokane,Washington,47.619861,-117.533833,724,-8
OKC,Will Rogers World,USA,Oklahoma City,Oklahoma,35.393089,-97.600733,395,-6
RIC,Richmond Intl,USA,Richmond,Virginia,37.505167,-77.319667,51,-5
JFK,John F Kennedy Intl,USA,New York,New York,40.639751,-73.778925,4,-5
JAX,Jacksonville Intl,USA,Jacksonville,Florida,30.494056,-81.687861,9,-5
JAN,Jackson Evers Intl,USA,Jackson,Mississippi,32.311167,-90.075889,105,-6
SAF,Santa Fe Muni,USA,Santa Fe,New Mexico,35.617108,-106.089422,1935,-7
OAJ,Albert J Ellis,USA,Jacksonville,Florida,34.829164,-77.612139,29,-5
OAK,Metropolitan Oakland Intl,USA,Oakland,California,37.721278,-122.220722,3,-8
JNU,Juneau Intl,USA,Juneau,Alaska,58.354972,-134.576278,6,-9
ANC,Ted Stevens Anchorage Intl,USA,Anchorage,Alaska,61.174361,-149.996361,46,-9
HNL,Honolulu Intl,USA,Honolulu,Hawaii,21.318681,-157.922428,4,-10
ITO,Hilo Intl,USA,Hilo,Hawaii,19.721375,-155.048469,12,-10
LNY,Lanai,USA,,,20.785611,-156.951419,399,-10
MKK,Molokai,USA,,,21.152886,-157.096256,138,-10
OGG,Kahului,USA,,,20.89865,-156.430458,16,-10
MVD,Carrasco Intl,ROU,Montevideo,Uruguay,-34.838417,-56.030806,32,-3
BHK,Bukhara,UZ,Buxoro,Buxoro,39.775,64.483333,229,5
UGC,Urgench Airport,UZ,Urganch,Xorazm,41.5843,60.6417,98,5
TMJ,Termez Airport,UZ,Termiz,Surkhandarya,37.286667,67.31,313,5
TAS,Yuzhny,UZ,Toshkent,Toshkent City,41.257861,69.281186,432,5
NCU,Nukus Airport,UZ,Nukus,Qoraqalpogʻiston,42.4884,59.6233,75,5
FEG,Fergana Airport,UZ,Fargona,Fargʻona,40.3588,71.745,604,5
SKD,Samarkand,UZ,Samarqand,Samarqand,39.700547,66.983829,678,5
VLI,Port Vila Bauerfield,VU,Port Vila,Vanuatu,-17.699325,168.319794,21,11
PZO,General Manuel Carlos Piar,YV,Ciudad Guayana,Bolívar,8.288528,-62.760361,144,-4
BLA,General Jose Antonio Anzoategui Intl,YV,Barcelona,Anzoátegui,10.107139,-64.689161,8,-4
PYH,Casique Aramare,YV,Puerto Ayacucho,Amazonas,5.619992,-67.606103,75,-4
BRM,Barquisimeto Intl,YV,Barquisimeto,Lara,10.042747,-69.358619,623,-4
MAR,La Chinita Intl,YV,Maracaibo,Zulia,10.558208,-71.727856,72,-4
VLN,Arturo Michelena Intl,YV,Valencia,Carabobo,10.149733,-67.9284,432,-4
MUN,Maturin,YV,Maturín,Monagas,9.749067,-63.1534,68,-4
CCS,Simon Bolivar Intl,YV,Caracas,Distrito Federal,10.603117,-66.990583,72,-4
PMV,Caribe Santiago Mariño,YV,Porlamar,Nueva Esparta,10.89,-63.65,14,-4
VKG,Rach Gia,VN,Rach Gia,Mekong River Delta,9.949676,105.133659,2,7
VII,Vinh Airport,VN,Vinh,North and South Central Coast,18.737569,105.670764,7,7
SGN,Tansonnhat Intl,VN,Thanh Pho Ho Chi Minh,Southeast,10.818797,106.651856,10,7
HAN,Noibai Intl,VN,Hanoi,Red River Delta,21.221192,105.807178,12,7
HPH,Cat Bi International Airport,VN,Haiphong,Red River Delta,20.819386,106.724989,2,7
VCA,Tra Noc Airport,VN,Can Tho,Mekong River Delta,10.085119,105.711922,3,7
NHA,Nha Trang,VN,Nha Trang,North and South Central Coast,12.227467,109.192322,6,7
STT,Cyril E King,VIRG,Charlotte Amalie,Virgin Islands,18.337306,-64.973361,7,-4
WLS,Wallis,WF,Mata-Utu,Wallis and Futuna,-13.238281,-176.199228,24,12
EUN,Hassan I Airport,WSA,El Aaiun,Western Sahara,27.1517,-13.2192,63,0
SAH,Sanaa Intl,YE,Sanaa,Yemen,15.476258,44.219739,2200,3
HOD,Hodeidah Intl,YE,al Hudaydah,Yemen,14.753,42.976336,13,3
TAI,Taiz Intl,YE,Taizz,Yemen,13.685964,44.139056,1475,3
ADE,Aden Intl,YE,Aden,Yemen,12.829542,45.028792,2,3
LVI,Livingstone,Z,Livingstone,Southern,-17.821756,25.822692,1007,2
NLA,Ndola,Z,Ndola,Copperbelt,-12.998139,28.664944,1270,2
LUN,Lusaka Intl,Z,Lusaka,Lusaka,-15.330817,28.452628,1152,2
BUQ,J M Nkomo Intl,ZW,Bulawayo,Zimbabwe,-20.017431,28.617869,1329,2
HRE,Harare Intl,ZW,Harare,Zimbabwe,-17.931806,31.092847,1490,2
